department_id,department_name,latitude,longitude,locality,postal_code
19,Corrèze,45.507,1.7675,Affieux,19260
19,Corrèze,45.613,2.3921,Aix,19200
19,Corrèze,45.147,1.6774,Albignac,19190
19,Corrèze,45.141,1.8139,Albussac,19380
19,Corrèze,45.255,1.4691,Allassac,19240
19,Corrèze,45.563,2.2183,Alleyrat,19200
19,Corrèze,44.980,1.8688,Altillac,19120
19,Corrèze,45.532,2.0852,Ambrugeat,19250
19,Corrèze,45.309,1.8035,Les Angles-sur-Corrèze,19000
19,Corrèze,45.101,1.9343,Argentat-sur-Dordogne,19400
19,Corrèze,45.410,1.3614,Arnac-Pompadour,19230
19,Corrèze,44.951,1.8303,Astaillac,19120
19,Corrèze,45.185,1.6864,Aubazines,19190
19,Corrèze,45.200,2.1393,Auriac,19220
19,Corrèze,45.254,1.3244,Ayen,19310
19,Corrèze,45.342,1.8146,Bar,19800
19,Corrèze,45.025,1.8687,Bassignac-le-Bas,19430
19,Corrèze,45.199,2.0673,Bassignac-le-Haut,19220
19,Corrèze,44.980,1.8276,Beaulieu-sur-Dordogne,19120
19,Corrèze,45.423,1.7909,Beaumont,19390
19,Corrèze,45.648,2.2220,Bellechassagne,19290
19,Corrèze,45.523,1.4684,Benayes,19510
19,Corrèze,45.131,1.7298,Beynat,19190
19,Corrèze,45.368,1.4190,Beyssac,19230
19,Corrèze,45.402,1.3036,Beyssenac,19230
19,Corrèze,44.941,1.7772,Bilhac,19120
19,Corrèze,45.525,1.9864,Bonnefond,19170
19,Corrèze,45.393,2.4917,Bort-les-Orgues,19110
19,Corrèze,45.008,1.7084,Branceilles,19500
19,Corrèze,45.176,1.3328,Brignac-la-Plaine,19310
19,Corrèze,45.143,1.5193,Brive-la-Gaillarde,19100
19,Corrèze,45.020,1.8376,Brivezac,19120
19,Corrèze,45.590,1.9300,Bugeat,19170
19,Corrèze,44.992,1.9950,Camps-Saint-Mathurin-Léobazel,19430
19,Corrèze,44.992,1.9950,Camps-Saint-Mathurin-Léobazel,19430
19,Corrèze,45.314,1.3421,Chabrignac,19350
19,Corrèze,45.602,1.7195,Chamberet,19370
19,Corrèze,45.427,1.7093,Chamboulive,19450
19,Corrèze,45.247,1.7062,Chameyrat,19330
19,Corrèze,45.306,1.9982,Champagnac-la-Noaille,19320
19,Corrèze,45.189,1.9378,Champagnac-la-Prune,19320
19,Corrèze,45.270,1.8173,Chanac-les-Mines,19150
19,Corrèze,45.312,1.6226,Chanteix,19330
19,Corrèze,45.143,1.6266,La Chapelle-aux-Brocs,19360
19,Corrèze,44.983,1.7190,La Chapelle-aux-Saints,19120
19,Corrèze,45.049,1.9478,La Chapelle-Saint-Géraud,19430
19,Corrèze,45.358,2.0524,Chapelle-Spinasse,19300
19,Corrèze,45.058,1.4341,Chartrier-Ferrière,19600
19,Corrèze,45.175,1.7328,Le Chastang,19190
19,Corrèze,45.082,1.4674,Chasteaux,19600
19,Corrèze,45.019,1.6714,Chauffour-sur-Vell,19500
19,Corrèze,45.455,1.8802,Chaumeil,19390
19,Corrèze,45.619,2.0992,Chavanac,19290
19,Corrèze,45.565,2.2520,Chaveroche,19200
19,Corrèze,45.060,1.8243,Chenailler-Mascheix,19120
19,Corrèze,45.452,2.3080,Chirac-Bellevue,19160
19,Corrèze,45.275,1.9567,Clergoux,19320
19,Corrèze,45.066,1.6533,Collonges-la-Rouge,19500
19,Corrèze,45.468,2.1651,Combressol,19250
19,Corrèze,45.360,1.3377,Concèze,19350
19,Corrèze,45.482,1.5988,Condat-sur-Ganaveix,19140
19,Corrèze,45.213,1.6966,Cornil,19150
19,Corrèze,45.365,1.8709,Corrèze,19800
19,Corrèze,45.130,1.5860,Cosnac,19360
19,Corrèze,45.671,2.3445,Couffy-sur-Sarsonne,19340
19,Corrèze,45.646,2.3435,Courteix,19340
19,Corrèze,45.156,1.3058,Cublac,19520
19,Corrèze,45.003,1.7546,Curemonte,19500
19,Corrèze,45.163,1.6382,Dampniat,19360
19,Corrèze,45.174,2.0813,Darazac,19220
19,Corrèze,45.424,2.1130,Darnets,19300
19,Corrèze,45.491,2.0758,Davignac,19250
19,Corrèze,45.231,1.5263,Donzenac,19270
19,Corrèze,45.421,2.0362,Égletons,19300
19,Corrèze,45.657,1.7964,L'Église-aux-Bois,19170
19,Corrèze,45.240,1.8988,Espagnac,19150
19,Corrèze,45.399,1.5950,Espartignac,19140
19,Corrèze,45.030,1.4585,Estivals,19600
19,Corrèze,45.318,1.4950,Estivaux,19410
19,Corrèze,45.469,1.6447,Eyburie,19140
19,Corrèze,45.676,2.4240,Eygurande,19340
19,Corrèze,45.327,1.9427,Eyrein,19800
19,Corrèze,45.263,1.6703,Favars,19330
19,Corrèze,45.684,2.4790,Feyt,19340
19,Corrèze,45.158,1.8652,Forgès,19380
19,Corrèze,45.304,1.8421,Gimel-les-Cascades,19800
19,Corrèze,45.019,2.0935,Goulles,19430
19,Corrèze,45.547,1.9000,Gourdon-Murat,19170
19,Corrèze,45.487,1.9301,Grandsaigne,19300
19,Corrèze,45.214,2.0032,Gros-Chastang,19320
19,Corrèze,45.219,1.9622,Gumond,19320
19,Corrèze,45.091,1.9924,Hautefage,19400
19,Corrèze,45.321,2.0502,Le Jardin,19300
19,Corrèze,45.088,1.5545,Jugeals-Nazareth,19500
19,Corrèze,45.322,1.2923,Juillac,19350
19,Corrèze,45.642,1.8326,Lacelle,19170
19,Corrèze,45.230,1.8248,Ladignac-sur-Rondelles,19150
19,Corrèze,45.292,2.0769,Lafage-sur-Sombre,19320
19,Corrèze,45.185,1.8178,Lagarde-Enval,19150
19,Corrèze,45.084,1.6955,Lagleygeolle,19500
19,Corrèze,45.355,1.6238,Lagraulière,19700
19,Corrèze,45.240,1.7866,Laguenne,19150
19,Corrèze,45.373,2.1714,Lamazière-Basse,19160
19,Corrèze,45.675,2.3858,Lamazière-Haute,19340
19,Corrèze,45.540,1.5801,Lamongerie,19510
19,Corrèze,45.117,1.6400,Lanteuil,19190
19,Corrèze,45.297,2.1592,Lapleau,19550
19,Corrèze,45.113,1.4199,Larche,19600
19,Corrèze,45.706,2.4992,Laroche-près-Feyt,19340
19,Corrèze,45.340,1.3720,Lascaux,19130
19,Corrèze,45.308,2.2400,Latronche,19160
19,Corrèze,45.254,2.1424,Laval-sur-Luzège,19550
19,Corrèze,45.541,1.8643,Lestards,19170
19,Corrèze,45.405,2.3234,Liginiac,19160
19,Corrèze,45.613,2.3019,Lignareix,19200
19,Corrèze,45.049,1.6182,Ligneyrac,19500
19,Corrèze,44.937,1.8081,Liourdres,19120
19,Corrèze,45.110,1.4596,Lissac-sur-Couze,19600
19,Corrèze,45.469,1.7311,Le Lonzac,19470
19,Corrèze,45.068,1.7749,Lostanges,19500
19,Corrèze,45.217,1.2707,Louignac,19310
19,Corrèze,45.454,1.4002,Lubersac,19210
19,Corrèze,45.467,1.7965,Madranges,19470
19,Corrèze,45.176,1.5838,Malemort,19360
19,Corrèze,45.176,1.5838,Malemort,19360
19,Corrèze,45.160,1.3822,Mansac,19520
19,Corrèze,45.252,2.0341,Marcillac-la-Croisille,19320
19,Corrèze,45.033,1.7378,Marcillac-la-Croze,19500
19,Corrèze,45.197,1.8521,Marc-la-Tour,19150
19,Corrèze,45.456,2.4156,Margerides,19200
19,Corrèze,45.541,1.5196,Masseret,19510
19,Corrèze,45.470,2.1267,Maussac,19250
19,Corrèze,45.547,1.6365,Meilhards,19510
19,Corrèze,45.105,1.7931,Ménoire,19190
19,Corrèze,45.011,1.9524,Mercœur,19430
19,Corrèze,45.625,2.4584,Merlines,19340
19,Corrèze,45.493,2.3175,Mestes,19200
19,Corrèze,45.554,2.1400,Meymac,19250
19,Corrèze,45.403,1.8604,Meyrignac-l'Église,19800
19,Corrèze,45.050,1.6837,Meyssac,19500
19,Corrèze,45.645,2.0892,Millevaches,19290
19,Corrèze,45.071,1.8890,Monceaux-sur-Dordogne,19400
19,Corrèze,45.650,2.4893,Monestier-Merlines,19340
19,Corrèze,45.496,2.4898,Monestier-Port-Dieu,19110
19,Corrèze,45.346,2.0158,Montaignac-Saint-Hippolyte,19300
19,Corrèze,45.508,1.4212,Montgibaud,19210
19,Corrèze,45.379,2.1009,Moustier-Ventadour,19300
19,Corrèze,45.314,1.7506,Naves,19460
19,Corrèze,45.056,1.5025,Nespouls,19600
19,Corrèze,45.371,2.2586,Neuvic,19160
19,Corrèze,45.109,1.8445,Neuville,19380
19,Corrèze,45.082,1.6166,Noailhac,19500
19,Corrèze,45.098,1.5185,Noailles,19600
19,Corrèze,45.019,1.8091,Nonards,19120
19,Corrèze,45.263,1.4128,Objat,19130
19,Corrèze,45.340,1.4618,Orgnac-sur-Vézère,19410
19,Corrèze,45.374,1.8054,Orliac-de-Bar,19390
19,Corrèze,45.164,1.6975,Palazinges,19190
19,Corrèze,45.433,2.2072,Palisse,19160
19,Corrèze,45.221,1.8589,Pandrignes,19150
19,Corrèze,45.472,2.0253,Péret-Bel-Air,19300
19,Corrèze,45.575,2.0039,Pérols-sur-Vézère,19170
19,Corrèze,45.213,1.3274,Perpezac-le-Blanc,19310
19,Corrèze,45.337,1.5534,Perpezac-le-Noir,19410
19,Corrèze,45.082,1.7597,Le Pescher,19190
19,Corrèze,45.710,2.0373,Peyrelevade,19290
19,Corrèze,45.506,1.6941,Peyrissac,19260
19,Corrèze,45.427,1.6502,Pierrefitte,19450
19,Corrèze,45.536,2.4984,Confolent-Port-Dieu,19200
19,Corrèze,45.511,1.9096,Pradines,19170
19,Corrèze,45.025,1.7718,Puy-d'Arnac,19120
19,Corrèze,44.964,1.7678,Queyssac-les-Vignes,19120
19,Corrèze,45.019,1.9038,Reygade,19430
19,Corrèze,45.527,1.6911,Rilhac-Treignac,19260
19,Corrèze,45.172,2.1898,Rilhac-Xaintrie,19220
19,Corrèze,45.198,1.9635,La Roche-Canillac,19320
19,Corrèze,45.427,2.3798,Roche-le-Peyroux,19160
19,Corrèze,45.387,2.0108,Rosiers-d'Égletons,19300
19,Corrèze,45.286,1.3081,Rosiers-de-Juillac,19350
19,Corrèze,45.274,1.5497,Sadroc,19270
19,Corrèze,45.040,1.6412,Saillac,19500
19,Corrèze,45.494,2.2315,Saint-Angel,19200
19,Corrèze,45.433,1.8325,Saint-Augustin,19390
19,Corrèze,45.236,1.3879,Saint-Aulaire,19130
19,Corrèze,45.151,1.9540,Saint-Bazile-de-la-Roche,19320
19,Corrèze,45.054,1.7238,Saint-Bazile-de-Meyssac,19500
19,Corrèze,45.252,1.8214,Saint-Bonnet-Avalouze,19150
19,Corrèze,45.158,1.9167,Saint-Bonnet-Elvert,19380
19,Corrèze,45.293,1.3593,Saint-Bonnet-la-Rivière,19130
19,Corrèze,45.299,1.5264,Saint-Bonnet-l'Enfantier,19410
19,Corrèze,45.054,2.0520,Saint-Bonnet-les-Tours-de-Merle,19430
19,Corrèze,45.506,2.4263,Saint-Bonnet-près-Bort,19200
19,Corrèze,45.091,1.4123,Saint-Cernin-de-Larche,19600
19,Corrèze,45.126,1.8988,Saint-Chamant,19380
19,Corrèze,45.089,2.0997,Saint-Cirgues-la-Loutre,19220
19,Corrèze,45.330,1.6870,Saint-Clément,19700
19,Corrèze,45.250,1.3560,Saint-Cyprien,19130
19,Corrèze,45.279,1.3841,Saint-Cyr-la-Roche,19130
19,Corrèze,45.455,1.2779,Saint-Éloy-les-Tuileries,19210
19,Corrèze,45.566,2.4495,Saint-Étienne-aux-Clos,19200
19,Corrèze,45.450,2.3490,Saint-Étienne-la-Geneste,19160
19,Corrèze,45.511,2.3699,Saint-Exupéry-les-Roches,19200
19,Corrèze,45.226,1.5888,Sainte-Féréole,19270
19,Corrèze,45.206,1.7631,Sainte-Fortunade,19490
19,Corrèze,45.555,2.3779,Saint-Fréjoux,19200
19,Corrèze,45.082,2.0589,Saint-Geniez-ô-Merle,19220
19,Corrèze,45.607,2.2137,Saint-Germain-Lavolps,19290
19,Corrèze,45.267,1.6209,Saint-Germain-les-Vergnes,19330
19,Corrèze,45.323,2.1146,Saint-Hilaire-Foissac,19550
19,Corrèze,45.598,1.8214,Saint-Hilaire-les-Courbes,19170
19,Corrèze,45.346,2.2076,Saint-Hilaire-Luc,19160
19,Corrèze,45.210,1.6418,Saint-Hilaire-Peyroux,19560
19,Corrèze,45.083,1.8328,Saint-Hilaire-Taurieux,19400
19,Corrèze,45.393,1.6489,Saint-Jal,19700
19,Corrèze,45.123,2.1459,Saint-Julien-aux-Bois,19220
19,Corrèze,45.001,2.0637,Saint-Julien-le-Pèlerin,19430
19,Corrèze,45.457,1.3207,Saint-Julien-le-Vendômois,19210
19,Corrèze,45.034,1.7093,Saint-Julien-Maumont,19500
19,Corrèze,45.432,2.4346,Saint-Julien-près-Bort,19110
19,Corrèze,45.432,2.3459,Sainte-Marie-Lapanouze,19160
19,Corrèze,45.272,1.8864,Saint-Martial-de-Gimel,19150
19,Corrèze,45.127,1.9686,Saint-Martial-Entraygues,19400
19,Corrèze,45.171,1.9947,Saint-Martin-la-Méanne,19320
19,Corrèze,45.443,1.4823,Saint-Martin-Sepert,19210
19,Corrèze,45.248,2.0960,Saint-Merd-de-Lapleau,19320
19,Corrèze,45.622,2.0321,Saint-Merd-les-Oussines,19170
19,Corrèze,45.289,1.6762,Saint-Mexant,19330
19,Corrèze,45.320,2.2017,Saint-Pantaléon-de-Lapleau,19160
19,Corrèze,45.146,1.4324,Saint-Pantaléon-de-Larche,19600
19,Corrèze,45.442,1.4552,Saint-Pardoux-Corbier,19210
19,Corrèze,45.249,1.9689,Saint-Pardoux-la-Croisille,19320
19,Corrèze,45.612,2.3314,Saint-Pardoux-le-Neuf,19200
19,Corrèze,45.602,2.2719,Saint-Pardoux-le-Vieux,19200
19,Corrèze,45.299,1.5815,Saint-Pardoux-l'Ortigier,19270
19,Corrèze,45.206,1.8979,Saint-Paul,19150
19,Corrèze,45.308,1.8936,Saint-Priest-de-Gimel,19800
19,Corrèze,45.136,2.0773,Saint-Privat,19220
19,Corrèze,45.654,2.2737,Saint-Rémy,19290
19,Corrèze,45.253,1.2953,Saint-Robert,19310
19,Corrèze,45.390,1.7663,Saint-Salvadour,19700
19,Corrèze,45.696,2.1173,Saint-Setiers,19290
19,Corrèze,45.306,1.4035,Saint-Solve,19130
19,Corrèze,45.374,1.3713,Saint-Sornin-Lavolps,19230
19,Corrèze,45.613,2.1415,Saint-Sulpice-les-Bois,19250
19,Corrèze,45.180,1.8883,Saint-Sylvain,19380
19,Corrèze,45.210,1.4641,Saint-Viance,19240
19,Corrèze,45.465,2.3859,Saint-Victour,19200
19,Corrèze,45.449,1.5188,Saint-Ybard,19140
19,Corrèze,45.454,1.9698,Saint-Yrieix-le-Déjalat,19300
19,Corrèze,45.502,1.5338,Salon-la-Tour,19510
19,Corrèze,45.412,1.9312,Sarran,19800
19,Corrèze,45.430,2.4679,Sarroux - Saint Julien,19110
19,Corrèze,45.276,1.2625,Segonzac,19310
19,Corrèze,45.427,1.3042,Ségur-le-Château,19230
19,Corrèze,45.366,1.7230,Seilhac,19700
19,Corrèze,45.350,2.3246,Sérandon,19160
19,Corrèze,45.098,1.7331,Sérilhac,19190
19,Corrèze,45.139,2.0223,Servières-le-Château,19220
19,Corrèze,45.047,2.0168,Sexcles,19430
19,Corrèze,44.977,1.8001,Sioniac,19120
19,Corrèze,45.669,2.1804,Sornac,19290
19,Corrèze,45.545,1.7268,Soudaine-Lavinadière,19370
19,Corrèze,45.446,2.0635,Soudeilles,19300
19,Corrèze,45.261,2.2036,Soursac,19550
19,Corrèze,45.672,1.9556,Tarnac,19170
19,Corrèze,45.506,2.4585,Thalamy,19200
19,Corrèze,45.645,1.9301,Toy-Viam,19170
19,Corrèze,45.552,1.8010,Treignac,19260
19,Corrèze,45.396,1.4479,Troche,19230
19,Corrèze,45.049,1.7845,Tudeils,19120
19,Corrèze,45.273,1.7631,Tulle,19000
19,Corrèze,45.061,1.5710,Turenne,19500
19,Corrèze,45.190,1.5126,Ussac,19270
19,Corrèze,45.550,2.3044,Ussel,19200
19,Corrèze,45.550,2.3044,Ussel,19200
19,Corrèze,45.550,2.3044,Ussel,19200
19,Corrèze,45.423,1.5652,Uzerche,19140
19,Corrèze,45.474,2.2818,Valiergues,19200
19,Corrèze,45.188,1.4340,Varetz,19240
19,Corrèze,45.261,1.3726,Vars-sur-Roseix,19130
19,Corrèze,44.982,1.7510,Végennes,19120
19,Corrèze,45.501,1.8380,Veix,19260
19,Corrèze,45.489,2.3956,Veyrières,19200
19,Corrèze,45.618,1.8870,Viam,19170
19,Corrèze,45.378,1.5188,Vigeois,19410
19,Corrèze,45.328,1.4006,Vignols,19130
19,Corrèze,45.372,1.9331,Vitrac-sur-Montane,19800
19,Corrèze,45.293,1.4404,Voutezac,19130
19,Corrèze,45.204,1.3836,Yssandon,19310
