department_id,department_name,latitude,longitude,locality,postal_code
84,Vaucluse,44.004,4.9579,Althen-des-Paluds,84210
84,Vaucluse,43.736,5.4713,Ansouis,84240
84,Vaucluse,43.879,5.3892,Apt,84400
84,Vaucluse,44.097,5.0316,Aubignan,84810
84,Vaucluse,44.138,5.3963,Aurel,84390
84,Vaucluse,43.829,5.4480,Auribeau,84400
84,Vaucluse,43.935,4.8407,Avignon,84000
84,Vaucluse,43.935,4.8407,Avignon,84140
84,Vaucluse,44.154,5.0991,Le Barroux,84330
84,Vaucluse,43.794,5.6467,La Bastide-des-Jourdans,84240
84,Vaucluse,43.692,5.5776,La Bastidonne,84120
84,Vaucluse,43.974,5.1312,Le Beaucet,84210
84,Vaucluse,44.123,5.0287,Beaumes-de-Venise,84190
84,Vaucluse,43.863,5.2036,Beaumettes,84220
84,Vaucluse,43.737,5.6959,Beaumont-de-Pertuis,84120
84,Vaucluse,44.182,5.2138,Beaumont-du-Ventoux,84340
84,Vaucluse,44.047,4.9080,Bédarrides,84370
84,Vaucluse,44.137,5.2344,Bédoin,84410
84,Vaucluse,44.036,5.2432,Blauvac,84570
84,Vaucluse,44.288,4.7523,Bollène,84500
84,Vaucluse,43.827,5.3145,Bonnieux,84480
84,Vaucluse,44.185,5.3324,Brantes,84390
84,Vaucluse,44.276,5.0018,Buisson,84110
84,Vaucluse,43.821,5.3750,Buoux,84480
84,Vaucluse,43.791,5.4917,Cabrières-d'Aigues,84240
84,Vaucluse,43.896,5.1527,Cabrières-d'Avignon,84220
84,Vaucluse,43.730,5.3835,Cadenet,84160
84,Vaucluse,44.109,4.7434,Caderousse,84860
84,Vaucluse,44.230,4.9333,Cairanne,84290
84,Vaucluse,44.159,4.8841,Camaret-sur-Aigues,84850
84,Vaucluse,44.112,5.1068,Caromb,84330
84,Vaucluse,44.059,5.0613,Carpentras,84200
84,Vaucluse,43.888,5.4798,Caseneuve,84750
84,Vaucluse,43.834,5.4811,Castellet,84400
84,Vaucluse,43.891,4.9563,Caumont-sur-Durance,84510
84,Vaucluse,43.850,5.0360,Cavaillon,84300
84,Vaucluse,43.850,5.0360,Cavaillon,84300
84,Vaucluse,43.927,4.9425,Châteauneuf-de-Gadagne,84470
84,Vaucluse,44.059,4.8272,Châteauneuf-du-Pape,84230
84,Vaucluse,43.788,5.1241,Cheval-Blanc,84460
84,Vaucluse,44.086,4.8816,Courthézon,84350
84,Vaucluse,44.209,5.0859,Crestet,84110
84,Vaucluse,44.118,5.1509,Crillon-le-Brave,84410
84,Vaucluse,43.778,5.4436,Cucuron,84160
84,Vaucluse,43.995,4.9329,Entraigues-sur-la-Sorgue,84320
84,Vaucluse,44.222,5.1333,Entrechaux,84340
84,Vaucluse,44.252,5.1421,Faucon,84110
84,Vaucluse,44.098,5.2637,Flassan,84410
84,Vaucluse,43.896,5.3436,Gargas,84400
84,Vaucluse,43.928,5.5230,Gignac,84400
84,Vaucluse,44.166,5.0123,Gigondas,84190
84,Vaucluse,43.909,5.1980,Gordes,84220
84,Vaucluse,43.867,5.2478,Goult,84220
84,Vaucluse,43.760,5.6040,Grambois,84240
84,Vaucluse,44.394,4.9341,Grillon,84600
84,Vaucluse,43.913,5.0566,L'Isle-sur-la-Sorgue,84800
84,Vaucluse,43.949,4.9441,Jonquerettes,84450
84,Vaucluse,44.131,4.9134,Jonquières,84150
84,Vaucluse,43.926,5.2526,Joucas,84220
84,Vaucluse,43.825,5.2659,Lacoste,84480
84,Vaucluse,44.154,5.0497,Lafare,84190
84,Vaucluse,43.983,5.4816,Lagarde-d'Apt,84400
84,Vaucluse,44.227,4.8510,Lagarde-Paréol,84290
84,Vaucluse,43.892,5.1145,Lagnes,84800
84,Vaucluse,44.276,4.6751,Lamotte-du-Rhône,84840
84,Vaucluse,44.306,4.6795,Lapalud,84840
84,Vaucluse,43.763,5.3033,Lauris,84360
84,Vaucluse,43.979,5.3093,Lioux,84220
84,Vaucluse,44.075,5.0051,Loriol-du-Comtat,84870
84,Vaucluse,43.778,5.3661,Lourmarin,84160
84,Vaucluse,44.188,5.1498,Malaucène,84340
84,Vaucluse,44.018,5.1674,Malemort-du-Comtat,84570
84,Vaucluse,43.841,5.1376,Maubec,84660
84,Vaucluse,44.054,5.1304,Mazan,84380
84,Vaucluse,43.824,5.2208,Ménerbes,84560
84,Vaucluse,43.761,5.2015,Mérindol,84360
84,Vaucluse,44.012,5.2529,Méthamis,84570
84,Vaucluse,43.704,5.6426,Mirabeau,84120
84,Vaucluse,44.105,5.1278,Modène,84330
84,Vaucluse,44.242,4.7245,Mondragon,84430
84,Vaucluse,44.056,5.3414,Monieux,84390
84,Vaucluse,44.033,4.9847,Monteux,84170
84,Vaucluse,43.933,4.9087,Morières-lès-Avignon,84310
84,Vaucluse,44.070,5.1909,Mormoiron,84570
84,Vaucluse,44.203,4.7401,Mornas,84550
84,Vaucluse,43.784,5.5214,La Motte-d'Aigues,84240
84,Vaucluse,43.964,5.2436,Murs,84220
84,Vaucluse,43.831,5.1698,Oppède,84580
84,Vaucluse,44.128,4.8098,Orange,84100
84,Vaucluse,43.996,5.0395,Pernes-les-Fontaines,84210
84,Vaucluse,43.687,5.5205,Pertuis,84120
84,Vaucluse,43.796,5.5600,Peypin-d'Aigues,84240
84,Vaucluse,44.177,4.7658,Piolenc,84420
84,Vaucluse,43.968,4.8654,Le Pontet,84130
84,Vaucluse,43.769,5.2569,Puget,84360
84,Vaucluse,44.284,5.1359,Puyméras,84110
84,Vaucluse,43.750,5.3380,Puyvert,84160
84,Vaucluse,44.232,4.9804,Rasteau,84110
84,Vaucluse,44.355,4.9038,Richerenches,84600
84,Vaucluse,44.255,5.0151,Roaix,84110
84,Vaucluse,43.851,5.1100,Robion,84440
84,Vaucluse,44.144,5.0688,La Roque-Alric,84190
84,Vaucluse,43.974,5.1017,La Roque-sur-Pernes,84210
84,Vaucluse,43.901,5.2920,Roussillon,84220
84,Vaucluse,43.929,5.4758,Rustrel,84400
84,Vaucluse,44.194,5.0011,Sablet,84110
84,Vaucluse,43.860,5.4383,Saignon,84400
84,Vaucluse,44.235,4.8892,Sainte-Cécile-les-Vignes,84290
84,Vaucluse,44.031,5.5032,Saint-Christol,84390
84,Vaucluse,44.009,5.1086,Saint-Didier,84210
84,Vaucluse,44.120,5.0761,Saint-Hippolyte-le-Graveyron,84330
84,Vaucluse,44.205,5.2707,Saint-Léger-du-Ventoux,84390
84,Vaucluse,44.237,5.1019,Saint-Marcellin-lès-Vaison,84110
84,Vaucluse,43.855,5.5191,Saint-Martin-de-Castillon,84750
84,Vaucluse,43.764,5.5397,Saint-Martin-de-la-Brasque,84760
84,Vaucluse,43.877,5.2165,Saint-Pantaléon,84220
84,Vaucluse,44.094,5.1443,Saint-Pierre-de-Vassols,84330
84,Vaucluse,44.261,5.1016,Saint-Romain-en-Viennois,84110
84,Vaucluse,44.263,4.9567,Saint-Roman-de-Malegarde,84290
84,Vaucluse,43.958,5.3732,Saint-Saturnin-lès-Apt,84490
84,Vaucluse,43.962,4.9410,Saint-Saturnin-lès-Avignon,84450
84,Vaucluse,44.096,5.4788,Saint-Trinit,84390
84,Vaucluse,43.756,5.4885,Sannes,84240
84,Vaucluse,44.099,4.9572,Sarrians,84260
84,Vaucluse,44.072,5.3988,Sault,84390
84,Vaucluse,43.938,5.1120,Saumane-de-Vaucluse,84800
84,Vaucluse,44.174,5.3728,Savoillan,84390
84,Vaucluse,44.215,5.0288,Séguret,84110
84,Vaucluse,44.193,4.8478,Sérignan-du-Comtat,84830
84,Vaucluse,43.822,5.4162,Sivergues,84400
84,Vaucluse,44.014,4.8674,Sorgues,84700
84,Vaucluse,44.171,5.0619,Suzette,84190
84,Vaucluse,43.831,5.0948,Taillades,84300
84,Vaucluse,43.928,4.9932,Le Thor,84250
84,Vaucluse,43.721,5.5673,La Tour-d'Aigues,84240
84,Vaucluse,44.189,4.9085,Travaillan,84850
84,Vaucluse,44.216,4.8018,Uchaux,84100
84,Vaucluse,44.145,4.9790,Vacqueyras,84190
84,Vaucluse,44.247,5.0604,Vaison-la-Romaine,84110
84,Vaucluse,44.377,4.9935,Valréas,84600
84,Vaucluse,43.922,5.1312,Fontaine-de-Vaucluse,84800
84,Vaucluse,43.778,5.4066,Vaugines,84160
84,Vaucluse,43.970,4.9032,Vedène,84270
84,Vaucluse,43.961,5.0283,Velleron,84740
84,Vaucluse,43.985,5.1650,Venasque,84210
84,Vaucluse,43.903,5.5602,Viens,84750
84,Vaucluse,43.951,5.4333,Villars,84400
84,Vaucluse,44.288,5.0478,Villedieu,84110
84,Vaucluse,43.707,5.4308,Villelaure,84530
84,Vaucluse,44.066,5.2570,Villes-sur-Auzon,84570
84,Vaucluse,44.176,4.9513,Violès,84150
84,Vaucluse,44.326,4.9443,Visan,84820
84,Vaucluse,43.813,5.5989,Vitrolles-en-Lubéron,84240
