zip_code,name_id,id,taxArea,city,estate_name,delivered,deliveryQuarter,developer_name,longitude,latitude,availablePropertiesMinPrice,availablePropertiesMaxPrice,availablePropertiesCount,residenceType,address,typologies,image
13100,Bastide Bibemus#adfa69d6c57a,adfa69d6c57a,A,Aix-en-Provence,Bastide Bibémus,False,2025T3,Sagec,5.468166,43.535016,330000,495000,5,,89 avenue jean et marcel fontenaille,T2|T3|T4,https://dj32ymiemc11o.cloudfront.net/eyJidWNrZXQiOiJvdGFyZWUtcHJvZHVjdGlvbi1maWxlcyIsImtleSI6Ijg4MGU4Y2JmNmQ2NmRkYjQ0NTUzOWQwZDBlODIwNGMxNWE2YjQwOWYiLCJlZGl0cyI6eyJyZXNpemUiOnsid2lkdGgiOjM4MCwiaGVpZ2h0IjozMDAsImZpdCI6ImNvdmVyIn19fQ==?signature=afe1313e4765d00b1f919c8478d579526f197073cf1db7fbbdb9c0a5a64e08a9
13400,VILLA ORANE#cebd718148fa,cebd718148fa,A,Aubagne,VILLA ORANE,False,2025T3,Pichet (RP),5.5690999,43.2976803,240000,315000,9,,16 AVENUE ROGER SALENGRO,T1|T2|T3|T4,https://dj32ymiemc11o.cloudfront.net/eyJidWNrZXQiOiJvdGFyZWUtcHJvZHVjdGlvbi1maWxlcyIsImtleSI6ImVmZDNlNzc3NTkzNWEwNzE3NjJlNDkyMjAxYjJmOWJhNTE1MjdiZDAiLCJlZGl0cyI6eyJyZXNpemUiOnsid2lkdGgiOjM4MCwiaGVpZ2h0IjozMDAsImZpdCI6ImNvdmVyIn19fQ==?signature=0e79f04c409bdf8dff12acc654045f31a956b74950c014c524b92b84e0db25ec
13126,L'Agora#9b66f360b2ff,9b66f360b2ff,B2,Vauvenargues,L'Agora,True,2010T2,Consultim,5.54378,43.5510019,135906.89,135906.89,1,EHPAD,D10 - Quartier des Aliberts,Chambre|Chambre simple,https://dj32ymiemc11o.cloudfront.net/eyJidWNrZXQiOiJvdGFyZWUtcHJvZHVjdGlvbi1maWxlcyIsImtleSI6IjM0MDFkM2EzNDE4MGI5MzU2OGYyNWYzODAyNzg5NGFhYzJiMjBlMmQiLCJlZGl0cyI6eyJyZXNpemUiOnsid2lkdGgiOjM4MCwiaGVpZ2h0IjozMDAsImZpdCI6ImNvdmVyIn19fQ==?signature=4248d59cead227abc8e620150803fcf75700d81bac0c44a9b7c1109d6c58ab77
13008,LES TERRASSES BORELY#f24a2d803c7d,f24a2d803c7d,A,Marseille,LES TERRASSES BORELY,False,2027T1,Les Nouveaux Constructeurs,5.3794623,43.2528332,205900,1021800,33,,44 Avenue Joseph Vidal,Studio|T1|T2|T3|T4|T5,https://dj32ymiemc11o.cloudfront.net/eyJidWNrZXQiOiJvdGFyZWUtcHJvZHVjdGlvbi1maWxlcyIsImtleSI6ImEwZjk5MDYyN2U0YzlmZDkxZjczZDMxN2NiNjNiZDNkZjQ5ZjJkYWMiLCJlZGl0cyI6eyJyZXNpemUiOnsid2lkdGgiOjM4MCwiaGVpZ2h0IjozMDAsImZpdCI6ImNvdmVyIn19fQ==?signature=2131dc149e9d3c7634f521b48a62eda6b4285617925070859868a24c0672fa1b
13400,LES ECOLINES#b4cef4c79a3c,b4cef4c79a3c,A,Aubagne,LES ECOLINES,False,2026T1,Groupe Eiffage,5.5855412,43.2909626,249000,436000,13,,774 route de Gemenos,T1|T2|T3|T4,
13008,LA MARSA#4b2a34680606,4b2a34680606,A,Marseille,LA MARSA,False,2026T1,Constructa,5.3822197,43.2670956,455000,1430000,23,,470 Avenue Du Prado,T2|T3|T4|T5,https://dj32ymiemc11o.cloudfront.net/eyJidWNrZXQiOiJvdGFyZWUtcHJvZHVjdGlvbi1maWxlcyIsImtleSI6Ijg2Njk3ZDY3ZTVkNzIyMDM3ODM1OWZmZGJhY2RiMmVkNzQzMDU2OTYiLCJlZGl0cyI6eyJyZXNpemUiOnsid2lkdGgiOjM4MCwiaGVpZ2h0IjozMDAsImZpdCI6ImNvdmVyIn19fQ==?signature=433bcadf174afb34bb154cff9e384fb634480e4998c1d7d75f1ab33dff102e55
13001,Campus Canebiere#f354fc080d30,f354fc080d30,A,Marseille,Campus Canebiere,True,2013T4,Revenu Pierre,5.3835467,43.29794,80500,121500,7,Student,9 rue Senac ,T1|T1 Bis|T2,https://dj32ymiemc11o.cloudfront.net/eyJidWNrZXQiOiJvdGFyZWUtcHJvZHVjdGlvbi1maWxlcyIsImtleSI6IjM3MTdlOTc3Y2IxMzNhY2M5MWYzZGJmY2YzZDMxYTIzMmUxYzU1ZGUiLCJlZGl0cyI6eyJyZXNpemUiOnsid2lkdGgiOjM4MCwiaGVpZ2h0IjozMDAsImZpdCI6ImNvdmVyIn19fQ==?signature=e76ed2faf3266bcc81952efc3ee1c836eca61d3781c25824c8e926881ec18623
13210,ALTEA 1#0cb1c9eb4f2f,0cb1c9eb4f2f,B1,Saint-Rémy-de-Provence,ALTEA 1,False,2025T2,Edouard Denis,4.840441,43.795514,220000,285000,4,,2 AV . THÉODORE AUBANEL,T1|T2|T3|T4,
13800,LE KALISA#32299b80de92,32299b80de92,A,Istres,LE KALISA,False,2025T1,Spirit,4.9835431,43.51382,267400,267400,1,,53 avenue Aristide Briand,|T1|T2|T3|T4|T5,https://dj32ymiemc11o.cloudfront.net/eyJidWNrZXQiOiJvdGFyZWUtcHJvZHVjdGlvbi1maWxlcyIsImtleSI6Ijk1OGQxMjNlYWU1Yzg3ZTI2ZWM2ZTgxMTkxM2Q4NTA3NjY1Zjc0MDQiLCJlZGl0cyI6eyJyZXNpemUiOnsid2lkdGgiOjM4MCwiaGVpZ2h0IjozMDAsImZpdCI6ImNvdmVyIn19fQ==?signature=1ef71f14ece98f86e9fa2c5d995e04c72d2885171cf053a590c1b7c5d9884388
13500,LE MAS DE LA COTE BLEUE#135ec8a4f9b1,135ec8a4f9b1,A,Martigues,LE MAS DE LA COTE BLEUE,True,2010T4,Fidexi,5.0537161,43.332887,229948.59,306999.99,2,EHPAD,Traverse de la Pointe Riche,Chambre simple|T1,
13003,Residence etudiante Studea Marseille Croix d'Azur#959dfa879dad,959dfa879dad,A,Marseille,Résidence étudiante Studéa Marseille Croix d'Azur,True,,iSelection,5.3737102,43.3055729,70000,70000,1,,"2 Rue du Pasteur Heuzé, 13003 Marseille",Studio,
13013,HARMONIA 1#85d3030a5529,85d3030a5529,A,Marseille,HARMONIA 1,False,2025T2,Nexity,5.421211,43.340209,260000,295734.58,1,,5 CHE M. NOTRE DAME DE LA C,T2|T3,
13013,Les Estudines - Marseille - Provence#9c456bd0bd6d,9c456bd0bd6d,A,Marseille,Les Estudines - Marseille - Provence,False,,Attentif LMNP,5.441645,43.3440266,75167,75167,1,Student,"Technopôle de, 6 Rue Louis Leprince Ringuet",Studio,https://dj32ymiemc11o.cloudfront.net/eyJidWNrZXQiOiJvdGFyZWUtcHJvZHVjdGlvbi1maWxlcyIsImtleSI6IjdkNTNmOGJiMWFkMjkwM2QzNmM3Njg1YjRiNjQzYTM4ZTU5YzQ5MmUiLCJlZGl0cyI6eyJyZXNpemUiOnsid2lkdGgiOjM4MCwiaGVpZ2h0IjozMDAsImZpdCI6ImNvdmVyIn19fQ==?signature=c69c21df59eee726e3a562b2b7162a652cfeb9728e0b36214a91af8bb483a417
13010,CAMPUS 98#4ab6255d3005,4ab6255d3005,A,Marseille,CAMPUS 98,False,2025T4,Pichet (RP),5.4050336,43.2855291,25000,199000,12,,98 RUE MATHURIN,PARKING REZ DE CHAUSSE|PARKING SOUS-SOL|PARKING SOUS-SOL HANDICAPE|PRDC|T1|T2,https://dj32ymiemc11o.cloudfront.net/eyJidWNrZXQiOiJvdGFyZWUtcHJvZHVjdGlvbi1maWxlcyIsImtleSI6IjI2NTA2OGQ4NzY5YzVkZjJkYjZhOTEwMDUxMTJmNzNlY2QyOWRiMjUiLCJlZGl0cyI6eyJyZXNpemUiOnsid2lkdGgiOjM4MCwiaGVpZ2h0IjozMDAsImZpdCI6ImNvdmVyIn19fQ==?signature=278f704d32edbac3426ac18d9e9a125db0f92690e5838ebfb3203be801d8717f
13008,Eden Blue#26002722e23a,26002722e23a,A,Marseille,Eden Blue,True,2023T2,Sogeprom,5.3808548,43.247326,699000,699000,1,,103 avenue des Goumiers,T3|T4|T5,https://dj32ymiemc11o.cloudfront.net/eyJidWNrZXQiOiJvdGFyZWUtcHJvZHVjdGlvbi1maWxlcyIsImtleSI6IjdmNGIzOGM4YWI2Mzc4YzkyNmE1YTk1ZDM1MTdlNGU5MmY2MTQ0ODEiLCJlZGl0cyI6eyJyZXNpemUiOnsid2lkdGgiOjM4MCwiaGVpZ2h0IjozMDAsImZpdCI6ImNvdmVyIn19fQ==?signature=3be0bd28dea3bc10fc1d3188ed4b76577d44eb1b5fffd464d911fd944831f309
13100,Appart City - Aix-en-Provence#281dcf1c9ae4,281dcf1c9ae4,A,Aix-en-Provence,Appart City - Aix-en-Provence,False,,Plusimmo - Plusinvest,5.351056,43.492211,98201.6,98201.6,1,,300 Avenue du Grand Vallat,Studio,https://dj32ymiemc11o.cloudfront.net/eyJidWNrZXQiOiJvdGFyZWUtcHJvZHVjdGlvbi1maWxlcyIsImtleSI6InVwbG9hZGluZ182NWVlY2JlMjA1YjcyIiwiZWRpdHMiOnsicmVzaXplIjp7IndpZHRoIjozODAsImhlaWdodCI6MzAwLCJmaXQiOiJjb3ZlciJ9fX0=?signature=42d9b9cd058b29d2869986f1b1eb0d5f2aae17f4218041d4a526b14116470ad9
13200,RESIDENCE COTE CAMARGUE#abd86b23cdbc,abd86b23cdbc,B1,Arles,RESIDENCE COTE CAMARGUE,False,2025T1,Pichet (Investissement),4.6243751,43.6017739,176000,176000,1,,AVICENNE,T2|T3|T4,https://dj32ymiemc11o.cloudfront.net/eyJidWNrZXQiOiJvdGFyZWUtcHJvZHVjdGlvbi1maWxlcyIsImtleSI6ImQ2NmMxNjU3NzFkZjQ1MzI0YjgwYjU0MGEwM2M0YjkzYzcyNjk1MjAiLCJlZGl0cyI6eyJyZXNpemUiOnsid2lkdGgiOjM4MCwiaGVpZ2h0IjozMDAsImZpdCI6ImNvdmVyIn19fQ==?signature=3e5808f63df2ed1633c211d2e30de3788dfde9bf31d8d1a119e47be9b40cf077
13600,RIVAGE#e506f5f5a9a8,e506f5f5a9a8,A,La Ciotat,RIVAGE,False,2025T2,Fidexi,5.6088792,43.1846462,239337,315567,2,,279-323 Avenue Ernest Subilia,T2|T3|T4,https://dj32ymiemc11o.cloudfront.net/eyJidWNrZXQiOiJvdGFyZWUtcHJvZHVjdGlvbi1maWxlcyIsImtleSI6ImI5NmIzYjYwYjljZmM2ZjE5MzNjZjhmMWJkN2M1OWI0MDJlNTUwNmUiLCJlZGl0cyI6eyJyZXNpemUiOnsid2lkdGgiOjM4MCwiaGVpZ2h0IjozMDAsImZpdCI6ImNvdmVyIn19fQ==?signature=bf5bb806ef307d840661493cb20b9d377d2c4d3e7c9cd4f9b37c5a543981bd31
13300,L'Amandiere#9a91a60df54b,9a91a60df54b,B1,Salon-de-Provence,L'Amandière,True,2009T3,Consultim,5.0560874,43.6389316,163420.99,163420.99,2,EHPAD,54 rue Victor Grignard,Chambre simple,https://dj32ymiemc11o.cloudfront.net/eyJidWNrZXQiOiJvdGFyZWUtcHJvZHVjdGlvbi1maWxlcyIsImtleSI6IjYyOTEwNGQ3ZDgwNDQ1MjVjNzA1OTY4MDEyNTcyZjE5YWNjZTQyMjEiLCJlZGl0cyI6eyJyZXNpemUiOnsid2lkdGgiOjM4MCwiaGVpZ2h0IjozMDAsImZpdCI6ImNvdmVyIn19fQ==?signature=1de9047e76004fac934af93ab0eb6e4357cccdcc99a03ede10e818bf3b04221b
13003,Studea Marseille Croix d'Azur#030740a6ad89,030740a6ad89,A,Marseille,Studéa Marseille Croix d'Azur,True,2012T3,Consultim,5.3736719,43.3055448,73189.9,84123.36,3,Student,"2, rue du Pasteur Heuzé",Studio,https://dj32ymiemc11o.cloudfront.net/eyJidWNrZXQiOiJvdGFyZWUtcHJvZHVjdGlvbi1maWxlcyIsImtleSI6IjFjODYxMTYzZDBkZmU4YTJhYjg3ZjMzYTllYjNkZmU0MWQ1YWIxOTciLCJlZGl0cyI6eyJyZXNpemUiOnsid2lkdGgiOjM4MCwiaGVpZ2h0IjozMDAsImZpdCI6ImNvdmVyIn19fQ==?signature=ea9df899ca055389ba801e16e3e32531bae206addcf2ebefb513c041f841db1d
13003,Studea Euromediterranee#c2c6ebca1568,c2c6ebca1568,A,Marseille,Studea Euromediterranee,True,2014T4,Revenu Pierre,5.3713859,43.3095808,72300,72300,2,Student,57 RUE PEYSSONNEL ,T1,https://dj32ymiemc11o.cloudfront.net/eyJidWNrZXQiOiJvdGFyZWUtcHJvZHVjdGlvbi1maWxlcyIsImtleSI6IjhhY2QxNDkwZDI0Mzg1MTM3ZWViODI1M2I2MTE0M2ZjM2I5N2MyZTIiLCJlZGl0cyI6eyJyZXNpemUiOnsid2lkdGgiOjM4MCwiaGVpZ2h0IjozMDAsImZpdCI6ImNvdmVyIn19fQ==?signature=2d568e0cf80c4e7ed56a5b5ac9b6b95e856d8be3e5a02c831b04591b74359ddf
13013,THE HIVE#9fb25fa9f238,9fb25fa9f238,A,Marseille,THE HIVE,False,2026T3,Valority Partners,5.4428468,43.3417234,94250,100350,17,Student,"207, rue Albert Einstein",T1,
13009,Patio Saint Joseph#ef5746b879f1,ef5746b879f1,A,Marseille,Patio Saint Joseph,True,2016T2,Crédit Agricole Immobilier,5.4130716,43.2542739,,,1,,7 Chemin de la colline St Joseph,T5,https://dj32ymiemc11o.cloudfront.net/eyJidWNrZXQiOiJvdGFyZWUtcHJvZHVjdGlvbi1maWxlcyIsImtleSI6IjMyYzNiOTY4OTE1YWViMzM2ZTcyZmRjYWExMzNhNWU4YzI3OGIyNTYiLCJlZGl0cyI6eyJyZXNpemUiOnsid2lkdGgiOjM4MCwiaGVpZ2h0IjozMDAsImZpdCI6ImNvdmVyIn19fQ==?signature=8e953ad23f3285470a861a45d19648941134a448bf21a276f8ba2dfba23361a7
13100,Campagne Giraud - Batiment B#c5ca4fb7c7ba,c5ca4fb7c7ba,A,Aix-en-Provence,Campagne Giraud - Bâtiment B,False,2025T1,CIFP,5.4418667,43.5385547,439900,1162396,5,,Allée Jérôme Lejeune,T2|T4,https://dj32ymiemc11o.cloudfront.net/eyJidWNrZXQiOiJvdGFyZWUtcHJvZHVjdGlvbi1maWxlcyIsImtleSI6ImIwM2JlZjYyNTI3ZTViMGIwYmE2NTQzZDNjZTcxOWYyNmI5YzU5MzMiLCJlZGl0cyI6eyJyZXNpemUiOnsid2lkdGgiOjM4MCwiaGVpZ2h0IjozMDAsImZpdCI6ImNvdmVyIn19fQ==?signature=43c6b08ae8162955fa45243e5db78818381cad8f823c69fac6ebd69ffc3bdc62
13004,Appartement T1 - 29 m2 - Marseille#04df7ada8678,04df7ada8678,A,Marseille,Appartement T1 - 29 m2 - Marseille,True,2024T2,Masteos,5.4078902,43.3147889,128000,128000,1,,Boulevard Albe,T1,https://dj32ymiemc11o.cloudfront.net/eyJidWNrZXQiOiJvdGFyZWUtcHJvZHVjdGlvbi1maWxlcyIsImtleSI6ImFlYjA2M2M3MTY2OThhN2FlZGRkNDFhNDcwZjI0OWMwMDZlZjMzZGUiLCJlZGl0cyI6eyJyZXNpemUiOnsid2lkdGgiOjM4MCwiaGVpZ2h0IjozMDAsImZpdCI6ImNvdmVyIn19fQ==?signature=a7982c1f96fd332cba595b2d0e8618160583607ebdc9e33dabc5e254c026b3f4
13600,Elais#928283672bff,928283672bff,A,La Ciotat,Elaïs,True,2024T2,Sogeprom,5.5975505,43.1895,615000,645000,2,,135 impasse Vallon du Puits,T1|T2|T3|T4,https://dj32ymiemc11o.cloudfront.net/eyJidWNrZXQiOiJvdGFyZWUtcHJvZHVjdGlvbi1maWxlcyIsImtleSI6ImMyYzRhYjJhNzI0NDA4ZGRiZjMzM2E2ZjdjN2Q3NDEyMGRkYWE3Y2IiLCJlZGl0cyI6eyJyZXNpemUiOnsid2lkdGgiOjM4MCwiaGVpZ2h0IjozMDAsImZpdCI6ImNvdmVyIn19fQ==?signature=33cd795b811db09bad4efe2728bb070c3811916a515cfee5dfe4b8373b50a232
13003,(STUDEA) Residence etudiante Studea Marseille Croix d'Azur#a22967ca5bf0,a22967ca5bf0,A,Marseille,(STUDEA) Résidence étudiante Studéa Marseille Croix d'Azur,True,,iSelection,5.3736719,43.3055448,76900,76900,1,,2 rue du Pasteur Heuzé,Studio,
13003,Residence Services Seniors Les Jardins d'Arcadie Marseille#3112460fc02c,3112460fc02c,A,Marseille,Résidence Services Seniors Les Jardins d'Arcadie Marseille,True,,iSelection,5.3718319,43.3116066,141000,161500,2,Senior,"1 Rue Mirès, 13003 Marseille",T1 Bis|T2,
13013,HARMONIA 5#83f1f97f029b,83f1f97f029b,A,Marseille,HARMONIA 5,False,2025T2,Nexity,5.4253757,43.3649321,268000,304834.1,1,,5 CHE M. NOTRE DAME DE LA C,T2|T3|T4,
13004,Solana#3ea44f96b8b5,3ea44f96b8b5,A,Marseille,Solana,False,2024T4,Marignan,5.4073518,43.3070551,438800,438800,1,,83 Boulevard de Roux,T1|T2|T3|T4,https://dj32ymiemc11o.cloudfront.net/eyJidWNrZXQiOiJvdGFyZWUtcHJvZHVjdGlvbi1maWxlcyIsImtleSI6ImI5OGE2NmQyMGNjOWEzMmU5NjBiOGFjNjZmOTE2NDdhMTg5NjY2MWQiLCJlZGl0cyI6eyJyZXNpemUiOnsid2lkdGgiOjM4MCwiaGVpZ2h0IjozMDAsImZpdCI6ImNvdmVyIn19fQ==?signature=762d0916acc83623d068a917da0bbde65309bef6a10c2c999a7d095308291645
13530,Le Montana#67f1d957b4aa,67f1d957b4aa,A,Trets,Le Montana,False,2025T3,Sogeprom,5.6778623,43.4499689,262000,429000,16,,Rue René Cassin – Lot 4 ZAC René Cassin,T1|T2|T3|T4,
13110,DOMAINE CASTILLON 18#89ffde3f5b18,89ffde3f5b18,A,Port-de-Bouc,DOMAINE CASTILLON 18,False,2025T2,Nexity,4.985308,43.424902,202000,204000,2,,1 GR AND COLLE HAUT,T2|T3|T4,
13800,RSS LES JARDINS D'ARCADIE 2#19e8d82a86c2,19e8d82a86c2,A,Istres,RSS LES JARDINS D'ARCADIE 2,False,2026T4,Nexity,4.986238,43.5117102,209000,282000,15,,23 BD DETHEZ,T1|T2|T3,
13400,VILLA ORANE#eeeb81245feb,eeeb81245feb,A,Aubagne,VILLA ORANE,False,2025T3,Pichet (Investissement),5.5690913,43.2976804,240000,315000,7,,16 AVENUE ROGER SALENGRO,T1|T2|T3|T4,https://dj32ymiemc11o.cloudfront.net/eyJidWNrZXQiOiJvdGFyZWUtcHJvZHVjdGlvbi1maWxlcyIsImtleSI6ImMyZWM3N2EyMjkyOTc5ODEzNjNlMzllODZiMWU5NzA2ZWRkZGE3NWMiLCJlZGl0cyI6eyJyZXNpemUiOnsid2lkdGgiOjM4MCwiaGVpZ2h0IjozMDAsImZpdCI6ImNvdmVyIn19fQ==?signature=1242ddb65ef8070f534c47032d386ac86c346325c53822590debcb2912ad937e
13400,Val Pre#40dbf763ffba,40dbf763ffba,A,Aubagne,Val Pré,True,2011T4,Consultim,5.5676709,43.2986857,151874.26,151874.26,1,EHPAD,13 BD VAL PRE,Chambre simple,https://dj32ymiemc11o.cloudfront.net/eyJidWNrZXQiOiJvdGFyZWUtcHJvZHVjdGlvbi1maWxlcyIsImtleSI6IjgyMDc4N2ZmYzJhMTExNjI4ODRmODU0MTE5MmI2ODcwMTI5MWI0OTAiLCJlZGl0cyI6eyJyZXNpemUiOnsid2lkdGgiOjM4MCwiaGVpZ2h0IjozMDAsImZpdCI6ImNvdmVyIn19fQ==?signature=a3edabfd11560e29b43af6716a3b118eaf62da8d66ef157953d67acb26f22591
13003,Les Docks Libres - Studea Euromediterannee#5e82c20c71d8,5e82c20c71d8,A,Marseille,Les Docks Libres - Studea Euroméditérannée,True,2016T1,Consultim,5.3730084,43.3158477,56019.85,56019.85,1,Student,11 Rue René Cassin,Studio,https://dj32ymiemc11o.cloudfront.net/eyJidWNrZXQiOiJvdGFyZWUtcHJvZHVjdGlvbi1maWxlcyIsImtleSI6IjJkNTlhNDAzYWIzYTYxZDc5YTU3NzZmYWI0NWZjODRlZmM0ZThkOGQiLCJlZGl0cyI6eyJyZXNpemUiOnsid2lkdGgiOjM4MCwiaGVpZ2h0IjozMDAsImZpdCI6ImNvdmVyIn19fQ==?signature=75288cac140bc0ca681bba26c980885457c361232fa6daaac92cf82255b2c2b6
13006,Appartement Studio - 30 m2 - Marseille#2aa71615006a,2aa71615006a,A,Marseille,Appartement Studio - 30 m2 - Marseille,True,2024T2,Masteos,5.3883879,43.2852788,154000,154000,1,,Avenue de Toulon,Studio,https://dj32ymiemc11o.cloudfront.net/eyJidWNrZXQiOiJvdGFyZWUtcHJvZHVjdGlvbi1maWxlcyIsImtleSI6Ijc1NGM5ZWQxMDcxNzBiZjlhMzQwNzI3MzkzZDAyOGJjZjg5MTFhMTMiLCJlZGl0cyI6eyJyZXNpemUiOnsid2lkdGgiOjM4MCwiaGVpZ2h0IjozMDAsImZpdCI6ImNvdmVyIn19fQ==?signature=dfe1097c0f7182eab11b59079ccf33e386ee0e5d88677fe6fa7355700885e8d4
13100,Les Floridianes#518f7113b314,518f7113b314,A,Aix-en-Provence,Les Floridianes,True,1994T4,Revenu Pierre,5.4444869,43.5211939,172300,172300,1,Business,24 Bd Albert Charrier ,T1,https://dj32ymiemc11o.cloudfront.net/eyJidWNrZXQiOiJvdGFyZWUtcHJvZHVjdGlvbi1maWxlcyIsImtleSI6IjQ1YzAxNmQyNjA4ZGE0MjY1YTYwNDI0YWVlODc1YWJhMmZlZGY4MDMiLCJlZGl0cyI6eyJyZXNpemUiOnsid2lkdGgiOjM4MCwiaGVpZ2h0IjozMDAsImZpdCI6ImNvdmVyIn19fQ==?signature=b6e80b6df4857a446f8182a1cc3fdfdebec94afec29c604143e7d37d1ea1834c
13008,280 PRADO 4#a4dd08ed063d,a4dd08ed063d,A,Marseille,280 PRADO 4,True,2024T3,Nexity,5.3899227,43.2738798,962000,962000,1,,276 AV . DU PRADO,T4,
13100,Les Bastides de Celony#cd1fe896fe3d,cd1fe896fe3d,A,Aix-en-Provence,Les Bastides de Célony,False,2024T4,Nacarat,5.3983317,43.5566115,300000,659000,6,,1857 chemin d'eguilles,T2|T3|T4|T5,https://dj32ymiemc11o.cloudfront.net/eyJidWNrZXQiOiJvdGFyZWUtcHJvZHVjdGlvbi1maWxlcyIsImtleSI6IjhjZmQyNjBhOTljNGQ4ZDY0MDBkYTA1OWU3M2M3MTAxODg2OTZiNDUiLCJlZGl0cyI6eyJyZXNpemUiOnsid2lkdGgiOjM4MCwiaGVpZ2h0IjozMDAsImZpdCI6ImNvdmVyIn19fQ==?signature=4f4732c25406802b12978838d1270b72efb1dd1eb57649ecd7e28c2c882b22f9
13140,Le 4 Liberte#c48a86830b70,c48a86830b70,A,Miramas,Le 4 Liberté,False,2024T4,Nacarat,5.0022653,43.578511,201999.97,332133,7,,rue de la liberté,T2|T3|T4,https://dj32ymiemc11o.cloudfront.net/eyJidWNrZXQiOiJvdGFyZWUtcHJvZHVjdGlvbi1maWxlcyIsImtleSI6IjNlY2E4YjI2NGVkNGFiYTJjNGM0OTYzYjdiYzcyOTlhMGJlMWYyYTEiLCJlZGl0cyI6eyJyZXNpemUiOnsid2lkdGgiOjM4MCwiaGVpZ2h0IjozMDAsImZpdCI6ImNvdmVyIn19fQ==?signature=c7a1cf92c277fa023718b5e9ac8cef60e830f9b5a1686138314a35015896ee61
13001,1 RUE GRIGNAN#91385b8606c3,91385b8606c3,A,Marseille,1 RUE GRIGNAN,False,2024T4,Angelys,5.379739,43.2927428,567050,590700,2,,1 Rue Grignan,T1|T2|T4 Duplex,https://dj32ymiemc11o.cloudfront.net/eyJidWNrZXQiOiJvdGFyZWUtcHJvZHVjdGlvbi1maWxlcyIsImtleSI6IjNmZmYwNzNhMDI1MmUwYWEzMzBjYzAzYWM2MDZjODQ2IiwiZWRpdHMiOnsicmVzaXplIjp7IndpZHRoIjozODAsImhlaWdodCI6MzAwLCJmaXQiOiJjb3ZlciJ9fX0=?signature=2a8c78f2d5039476711d3f9073623824e1dfc340ead837f6ef2bca739b73a8aa
13001,Campus Canebiere#c543aa2787cd,c543aa2787cd,A,Marseille,Campus Canebière,True,2015T4,Consultim,5.383577,43.2979494,69955.1,177766.43,8,Student,9 Rue Sénac,Studio|T2|T3,https://dj32ymiemc11o.cloudfront.net/eyJidWNrZXQiOiJvdGFyZWUtcHJvZHVjdGlvbi1maWxlcyIsImtleSI6IjZkYjM4YjhjNGU0NmY0NWI5OWY1NjU2M2E3YzBmYjE1N2QxNzBlNzIiLCJlZGl0cyI6eyJyZXNpemUiOnsid2lkdGgiOjM4MCwiaGVpZ2h0IjozMDAsImZpdCI6ImNvdmVyIn19fQ==?signature=87de2a6a0476996e2d855bcd41ba6fecb141c1c20abe394764f8efe5e3a85793
13006,Appartement T1 - 28 m2 - Marseille#8696bc9927db,8696bc9927db,A,Marseille,Appartement T1 - 28 m2 - Marseille,True,2024T2,Masteos,5.3905263,43.2927774,120000,120000,1,,Rue Saint-Pierre,T1,https://dj32ymiemc11o.cloudfront.net/eyJidWNrZXQiOiJvdGFyZWUtcHJvZHVjdGlvbi1maWxlcyIsImtleSI6IjFjNDg3MTEwMTBkYmI4MWM0YWM5NjUwZThjY2U2MjgzNjU4YzZiMDEiLCJlZGl0cyI6eyJyZXNpemUiOnsid2lkdGgiOjM4MCwiaGVpZ2h0IjozMDAsImZpdCI6ImNvdmVyIn19fQ==?signature=c3c9cde9f153b2627c717c4b4f95167e0cf671c7d0618c6cb76c8eb6165ee4f0
13010,Studea Marseille Timone#d1711e68852e,d1711e68852e,A,Marseille,Studéa Marseille Timone,True,2011T4,Consultim,5.3993448,43.286046,88474.56,88474.56,1,Student,9 Rue du Canada,Studio,https://dj32ymiemc11o.cloudfront.net/eyJidWNrZXQiOiJvdGFyZWUtcHJvZHVjdGlvbi1maWxlcyIsImtleSI6IjA1N2U0NGIwYjNjNTQ0NWZhOTdiMGNmZjhiMWVkMWU0N2I1NjRkNGYiLCJlZGl0cyI6eyJyZXNpemUiOnsid2lkdGgiOjM4MCwiaGVpZ2h0IjozMDAsImZpdCI6ImNvdmVyIn19fQ==?signature=c0b750ecc79b6673f50fa846e4374d2af20b32a469eca8b7cde0049cb4776305
13100,Adagio Aix-en-Provence Centre#581422736658,581422736658,A,Aix-en-Provence,Adagio Aix-en-Provence Centre,True,1989T4,Pierre & Sens,5.4408329,43.52895,179228,191660,2,Business,3 Rue des Chartreux,Studio,https://dj32ymiemc11o.cloudfront.net/eyJidWNrZXQiOiJvdGFyZWUtcHJvZHVjdGlvbi1maWxlcyIsImtleSI6InVwbG9hZGluZ182NmM0OWMxMTc4OThlIiwiZWRpdHMiOnsicmVzaXplIjp7IndpZHRoIjozODAsImhlaWdodCI6MzAwLCJmaXQiOiJjb3ZlciJ9fX0=?signature=41fb9701f9651d7da6eb96f8b692482a86e9724a26b7d025ce83d88c5838b3cb
13100,HERITAGE 1#8ba82052ee36,8ba82052ee36,A,Aix-en-Provence,HERITAGE 1,True,2024T2,Nexity,5.4383336,43.5189174,649000,649000,1,,5 AV . LOUIS COIRARD,T1|T2|T3|T4,
13003,PV & CP - Adagio Access - Marseille - Saint Charles#5d5f4f612afd,5d5f4f612afd,A,Marseille,PV & CP - Adagio Access - Marseille - Saint Charles,False,,Attentif LMNP,5.3818357,43.3046085,71078,71078,1,Business,23 Rue Honnorat,T1,https://dj32ymiemc11o.cloudfront.net/eyJidWNrZXQiOiJvdGFyZWUtcHJvZHVjdGlvbi1maWxlcyIsImtleSI6ImFlYmRkZmUyOGU2ZWI5NzQzNWQxZTEzNGJlY2Y0NjdkNjM3ZTcyMmYiLCJlZGl0cyI6eyJyZXNpemUiOnsid2lkdGgiOjM4MCwiaGVpZ2h0IjozMDAsImZpdCI6ImNvdmVyIn19fQ==?signature=4fbfad33d510acadf6837c82364d4b31d4a973442a8ab2c723a0e0fe45ca0962
13006,Mama Shelter Marseille#0e81d1300afb,0e81d1300afb,A,Marseille,Mama Shelter Marseille,True,2012T4,Revenu Pierre,5.3890063,43.290399,149300,149300,1,Tourism,64 Rue de la Loubiere ,T1|T1 Bis,https://dj32ymiemc11o.cloudfront.net/eyJidWNrZXQiOiJvdGFyZWUtcHJvZHVjdGlvbi1maWxlcyIsImtleSI6IjZmNzVlYTFhYzY3N2U3ZWI1MjdjNDY5ZGM2OThjMGRjYTUxZGI1YjgiLCJlZGl0cyI6eyJyZXNpemUiOnsid2lkdGgiOjM4MCwiaGVpZ2h0IjozMDAsImZpdCI6ImNvdmVyIn19fQ==?signature=21c7f68c03f126f43c6ffbeef0506bdbef632c311e7764e7b4e649dafa6b749e
13510,L'Ecrin Azur#35e50a3eab10,35e50a3eab10,A,Éguilles,L'Écrin Azur,False,2026T4,Quartus,5.3622898,43.5733057,219000,656000,21,,2 Route de la Calade,T1|T2|T3|T4|T5,
13090,LE CLOS BRUNET#d69dfc48b75f,d69dfc48b75f,A,Aix-en-Provence,LE CLOS BRUNET,False,2026T2,Fidexi,5.4372603,43.53675,219960,370305,5,,13 Chemin Brunet,T2|T3|T4,https://dj32ymiemc11o.cloudfront.net/eyJidWNrZXQiOiJvdGFyZWUtcHJvZHVjdGlvbi1maWxlcyIsImtleSI6Ijc1MjJkYzgyNTFmMjRmNzk0ZDdiOTUwOTZiNGE3MDg1ODQ4MDc2OGUiLCJlZGl0cyI6eyJyZXNpemUiOnsid2lkdGgiOjM4MCwiaGVpZ2h0IjozMDAsImZpdCI6ImNvdmVyIn19fQ==?signature=f6396c20415710fb2ee376b87dabfc3cd58fb4a52ccbd3a72d3d1b564db2ef09
13127,Domaine K-Ducee#e462f75c533b,e462f75c533b,A,Vitrolles,Domaine K-Ducée,False,2026T2,European Homes,5.250922,43.450832,253200,508000.38,22,," 39, Chemin des Hermès",Studio|T2|T3|T4|T5,https://dj32ymiemc11o.cloudfront.net/eyJidWNrZXQiOiJvdGFyZWUtcHJvZHVjdGlvbi1maWxlcyIsImtleSI6ImM4MWJlNDJkYmM0NjdkZDJhY2ViZjBjZDhjMDE0N2RhNmVkYjc2NzUiLCJlZGl0cyI6eyJyZXNpemUiOnsid2lkdGgiOjM4MCwiaGVpZ2h0IjozMDAsImZpdCI6ImNvdmVyIn19fQ==?signature=0a3d9fcd72ec617bdb45964f406ad7b67d678ac5039a191c99492cfe6f05ad7d
13080,LE CLOS SAINT ALBERT#8ce43fc84c04,8ce43fc84c04,A,Aix-en-Provence,LE CLOS SAINT ALBERT,False,2026T4,Ogic,5.4278706,43.4898458,475000,705000,20,,Rue Monique Lavison,T3|T4,https://dj32ymiemc11o.cloudfront.net/eyJidWNrZXQiOiJvdGFyZWUtcHJvZHVjdGlvbi1maWxlcyIsImtleSI6IjRlOWI5OTE3YmRlY2NlMjMwZjk5OTgwZTFhMGE3ODVlZTZhODZjM2QiLCJlZGl0cyI6eyJyZXNpemUiOnsid2lkdGgiOjM4MCwiaGVpZ2h0IjozMDAsImZpdCI6ImNvdmVyIn19fQ==?signature=985021440c84166a9448f88b12a3c8cb0648fe5a918e6b8672999b5e6907a7fa
13006,APPARTEMENT - 45m2 - MARSEILLE#0a9e92e94f51,0a9e92e94f51,A,Marseille,APPARTEMENT - 45m² - MARSEILLE,False,,Smart Investissement,5.3829782,43.2923961,185622,185622,1,,"6, Place Paul Cézanne",T1 Chambre,https://dj32ymiemc11o.cloudfront.net/eyJidWNrZXQiOiJvdGFyZWUtcHJvZHVjdGlvbi1maWxlcyIsImtleSI6IjNiMzVmYTY2ZDg4MzhkYjhlN2JkNmE4MWNmYjExYmYyZTY4NDg4MjIiLCJlZGl0cyI6eyJyZXNpemUiOnsid2lkdGgiOjM4MCwiaGVpZ2h0IjozMDAsImZpdCI6ImNvdmVyIn19fQ==?signature=d0aa6e94d136fb9a3673facd89ef8c5254e1c5977b198d053b97bb22eec61a20
13015,LA TULIPE#73ab4dfa72ff,73ab4dfa72ff,A,Marseille,LA TULIPE,False,,iSelection,5.3695628,43.3233587,213700,352500,2,,27 BD CHRISTOPHE MONCADA,1pice|T2|T2 Duplex|T2 pices Duplex|T3 Duplex|T3/T4 Duplex|T4|T4/T5 Duplex,
13530,PRIMAVERA 1#80000dcd96e5,80000dcd96e5,A,Trets,PRIMAVERA 1,False,2025T2,Nexity,5.6810179,43.4487261,235000,313000,9,,487 AV . RENÉ CASSIN,T2|T3|T4,
13480,L'Occitanie CABRIES - MARSEILLE -  13#916b659d28cd,916b659d28cd,A,Cabriès,L'Occitanie CABRIES - MARSEILLE -  13,True,,Pierre Loyers Conseil,5.3577183,43.4597785,90489.8,90489.8,1,EHPAD,"2015, Route de la Bellandière",T1,https://dj32ymiemc11o.cloudfront.net/eyJidWNrZXQiOiJvdGFyZWUtcHJvZHVjdGlvbi1maWxlcyIsImtleSI6ImM0NTA2YTYyZWZlZjRkNzE2NGQyNzU0ZDAxYjkwMWUwZjhkNjg4YzIiLCJlZGl0cyI6eyJyZXNpemUiOnsid2lkdGgiOjM4MCwiaGVpZ2h0IjozMDAsImZpdCI6ImNvdmVyIn19fQ==?signature=c3dc561f5dcf14ded5debd46b2aa3c4b7976f594de11cdb79f07e45cfb8857b7
13013,Le Clos de l'Erable#ccb4f1d046a0,ccb4f1d046a0,A,Marseille,Le Clos de l'Erable,False,2026T2,Marignan,5.4410128,43.3279055,225300,428700,19,,1 impasse de l'erable 13013,Maison T4|T2|T3,https://dj32ymiemc11o.cloudfront.net/eyJidWNrZXQiOiJvdGFyZWUtcHJvZHVjdGlvbi1maWxlcyIsImtleSI6ImFjMTcxZDI3ZmI2YmMxZDhkMTExZTIxYmNhOThkOGQzZTQ5MWZmMzUiLCJlZGl0cyI6eyJyZXNpemUiOnsid2lkdGgiOjM4MCwiaGVpZ2h0IjozMDAsImZpdCI6ImNvdmVyIn19fQ==?signature=0d52e089878de1062e0f51d7f10cfe8e65fea1605446f544f16a5a302c45c12a
13009,SIGNATURE TR2#f32b539f177f,f32b539f177f,A,Marseille,SIGNATURE TR2,True,2024T3,Vinci Immobilier,5.4112809,43.2634504,266000,521500,12,,"249, boulevard Sainte-Marguerite",Maison T4|Parking double|Parking simple|T2|T3|T4,https://dj32ymiemc11o.cloudfront.net/eyJidWNrZXQiOiJvdGFyZWUtcHJvZHVjdGlvbi1maWxlcyIsImtleSI6IjQ3Zjc0YWI3NTYzZmNlNmExYWJlNTQxYjc3YjNjZWQxMTZkMWE3YjYiLCJlZGl0cyI6eyJyZXNpemUiOnsid2lkdGgiOjM4MCwiaGVpZ2h0IjozMDAsImZpdCI6ImNvdmVyIn19fQ==?signature=ce86c400b24f978064333f5c438a6d83365308d5c33b8a90ef35ce8e022bb7a6
13008,L'Oree Borely#9c8734109246,9c8734109246,A,Marseille,L'Orée Borély,False,2026T4,Inovefa,5.3804411,43.2635982,333000,859000,47,,27 Boulevard Joseph Vernet,T2|T3|T4|T5,
13011,Location meublee - 4 lots - 71m2 - Marseille#e4465c64e198,e4465c64e198,A,Marseille,Location meublée - 4 lots - 71m2 - Marseille,False,2025T3,Investissement clés en main,5.4616316,43.2888343,411661.96,411661.96,1,,101 boulevard de Saint Marcel,Immeuble,https://dj32ymiemc11o.cloudfront.net/eyJidWNrZXQiOiJvdGFyZWUtcHJvZHVjdGlvbi1maWxlcyIsImtleSI6ImY3ZDFkNzcyY2YwYTBhMDMwYjViMTBlNzMwMDBiMzYyMzczODEwYWYiLCJlZGl0cyI6eyJyZXNpemUiOnsid2lkdGgiOjM4MCwiaGVpZ2h0IjozMDAsImZpdCI6ImNvdmVyIn19fQ==?signature=c4235fbad7cf68cbc9cb029df6030fd9ba2a0f10800b980365641e43150aba1d
13090,Domaine de l'Oratoire#6b85936bab25,6b85936bab25,A,Aix-en-Provence,Domaine de l'Oratoire,False,2026T4,Sogeprom,5.4287724,43.5372689,320000,1255000,29,,450 chemin de Bouenhoure,T2|T3|T4|T5,https://dj32ymiemc11o.cloudfront.net/eyJidWNrZXQiOiJvdGFyZWUtcHJvZHVjdGlvbi1maWxlcyIsImtleSI6IjE1YjRmY2IzZDMzZjZmZGE3YTI2ZTU0YmQ5ZTk1MzJjZTNkZTc5OTciLCJlZGl0cyI6eyJyZXNpemUiOnsid2lkdGgiOjM4MCwiaGVpZ2h0IjozMDAsImZpdCI6ImNvdmVyIn19fQ==?signature=eeacd54e8e0bfd3cffe88d43bb17d41a10f0ab21a5719a5c8a59e8b324cd4378
13008,Aparthotel Adagio Access Prado Perier#60287f3ba99e,60287f3ba99e,A,Marseille,Aparthotel Adagio Access Prado Perier,True,2002T4,Revenu Pierre,5.3885914,43.2785785,66100,66100,1,Business,161 Avenue du Prado ,T1,https://dj32ymiemc11o.cloudfront.net/eyJidWNrZXQiOiJvdGFyZWUtcHJvZHVjdGlvbi1maWxlcyIsImtleSI6ImUzNTBkMmY3M2JmY2ZjNTE5MjljNmQzMTJmZTE5NTE0YmMyZWU3OWQiLCJlZGl0cyI6eyJyZXNpemUiOnsid2lkdGgiOjM4MCwiaGVpZ2h0IjozMDAsImZpdCI6ImNvdmVyIn19fQ==?signature=49f5b6cdc9198fa4e226765019e27b6ef46b5f56a00e83f98c6d99a10a57e165
13370,Pont Royal#7780770d7a02,7780770d7a02,B1,Mallemort,Pont Royal,True,1995T4,Pierre & Sens,5.2110424,43.7084827,72520,234937,5,Tourism,Domaine et Golf de Pont Royal,T2|T3|T3 + cabine|T3 Duplex,https://dj32ymiemc11o.cloudfront.net/eyJidWNrZXQiOiJvdGFyZWUtcHJvZHVjdGlvbi1maWxlcyIsImtleSI6ImYzN2ZmZmI2ZWZhNjU4ZGRmMTBkMzgzYTkxZTE3ZTU0Zjk0ZmI4YjciLCJlZGl0cyI6eyJyZXNpemUiOnsid2lkdGgiOjM4MCwiaGVpZ2h0IjozMDAsImZpdCI6ImNvdmVyIn19fQ==?signature=1455399e8e09c87bb40402d64da587b30d596e2740b748d0b7c18b43813ae8e4
13100,DOMAINE DU PARC RAMBOT#6a79edc63ddf,6a79edc63ddf,A,Aix-en-Provence,DOMAINE DU PARC RAMBOT,True,2024T3,Cogedim,5.4582873,43.531032,495000,1550000,5,,2 AVENUE DOCTEUR AURIENTIS,T1|T2|T3|T4|T5,
13600,LE JARDIN D'AUGUSTA#236a996e7777,236a996e7777,A,La Ciotat,LE JARDIN D'AUGUSTA,False,2026T1,Ogic,5.605155,43.173653,540000,650000,5,,Impasse Boiteux,T1|T2|T3|T4,https://dj32ymiemc11o.cloudfront.net/eyJidWNrZXQiOiJvdGFyZWUtcHJvZHVjdGlvbi1maWxlcyIsImtleSI6IjkxZWYzYzRjM2ZlMjY1ZDg2MGE1NWJkMWZlYWQ3ZDQ5NzNlOTcwM2YiLCJlZGl0cyI6eyJyZXNpemUiOnsid2lkdGgiOjM4MCwiaGVpZ2h0IjozMDAsImZpdCI6ImNvdmVyIn19fQ==?signature=318cf41fb7e81c317cd5486e4ebe9a2dca4d47b6c46c9f4f7864aa1ac0d79f83
13400,LES JARDINS DU GARLABAN#10a029c34553,10a029c34553,A,Aubagne,LES JARDINS DU GARLABAN,False,2024T4,Les Nouveaux Constructeurs,5.5785892,43.3130027,329000,329000,1,,51 CHEMIN DE BEAUDINARD AUX SOLANS,T2|T3|T4|T5,https://dj32ymiemc11o.cloudfront.net/eyJidWNrZXQiOiJvdGFyZWUtcHJvZHVjdGlvbi1maWxlcyIsImtleSI6IjkxMzYyYmQ3NDNkZDNjYThhZWQxMDdlYTQ5ZTI2MGM0MTgwOTk2N2EiLCJlZGl0cyI6eyJyZXNpemUiOnsid2lkdGgiOjM4MCwiaGVpZ2h0IjozMDAsImZpdCI6ImNvdmVyIn19fQ==?signature=12daf2fa95625d2fb982b7fb91d581eef2caf6c3ddf024b199ffaad1e5e64656
13015,LA TULIPE#20cdd46b62f3,20cdd46b62f3,A,Marseille,LA TULIPE,False,,Histoire & Patrimoine,5.3695628,43.3233587,352500,368300,3,,27 BD CHRISTOPHE MONCADA,T1|T2|T2 Duplex|T2/T3|T3|T3 Duplex|T3/T4 Duplex|T4|T4 Triplex|T4/T5 Duplex,https://dj32ymiemc11o.cloudfront.net/eyJidWNrZXQiOiJvdGFyZWUtcHJvZHVjdGlvbi1maWxlcyIsImtleSI6IjE0ZmFhZGE4ZGEyYWNmOTdmN2JmNDA4YmFlMDgyNjZkMTA0NjA5NjgiLCJlZGl0cyI6eyJyZXNpemUiOnsid2lkdGgiOjM4MCwiaGVpZ2h0IjozMDAsImZpdCI6ImNvdmVyIn19fQ==?signature=3d8d9fcf08b81314eaa4d97270e9bb4a4258f098bcd56ac88a6f5455d0d4ca18
13003,Studilodge - Marseille - Residence La Provence#6c73b5d85e3e,6c73b5d85e3e,A,Marseille,Studilodge - Marseille - Résidence La Provence,False,,Attentif LMNP,5.3821564,43.3070761,73178,84829,3,Student,119-121 Boulevard National,Studio|T1|T2,
13100,LE MAS DE LA TORSE 1#21e51de6a98b,21e51de6a98b,A,Aix-en-Provence,LE MAS DE LA TORSE 1,True,2024T1,Nexity,5.4596176,43.5297942,590000,590000,1,,1 ALL BASTIDE DES CYPRES,T3|T4,
13300,L'Amandiere#19347c682084,19347c682084,B1,Salon-de-Provence,L'Amandiere,True,2009T4,Revenu Pierre,5.0560874,43.6389316,152800,152800,1,EHPAD,54 rue Victor Grignard ,T1,https://dj32ymiemc11o.cloudfront.net/eyJidWNrZXQiOiJvdGFyZWUtcHJvZHVjdGlvbi1maWxlcyIsImtleSI6IjU0ZDM1OGNhYjZkY2VjYjBjMmU1YjU5YzI0N2NjNGEyOWY3MWEyNTIiLCJlZGl0cyI6eyJyZXNpemUiOnsid2lkdGgiOjM4MCwiaGVpZ2h0IjozMDAsImZpdCI6ImNvdmVyIn19fQ==?signature=43552555c4ae0acbc5687d343b48f774c4a45b751c358376f932ecba9307a386
13005,CARRE SAINT PIERRE#d943632f89e2,d943632f89e2,A,Marseille,CARRE SAINT PIERRE,True,2015T3,Valority Partners,5.3925675,43.2920223,69729.17,93560.61,11,,98 Rue Saint Pierre,Studio|T1,
13008,CALYPSO#717fbf240008,717fbf240008,A,Marseille,CALYPSO,False,2025T3,Les Nouveaux Constructeurs,5.37824,43.24693,326700,1607800,17,,55 AVENUE GOUMIERS,T2|T3|T3 Duplex|T4|T4 Duplex,https://dj32ymiemc11o.cloudfront.net/eyJidWNrZXQiOiJvdGFyZWUtcHJvZHVjdGlvbi1maWxlcyIsImtleSI6IjcxMTkzZmE0ZGZmYmFiMzk4ZDJhOWQ4MDNhOGZhZGI1YzRjNDFmY2MiLCJlZGl0cyI6eyJyZXNpemUiOnsid2lkdGgiOjM4MCwiaGVpZ2h0IjozMDAsImZpdCI6ImNvdmVyIn19fQ==?signature=67ba2dcc2efbd57c95f7977b67fbb87b12653a5ea8702876d73262213d31aefa
13000,APPARTEMENT - 43m2 - MARSEILLE#b249b2907fd3,b249b2907fd3,A,Marseille,APPARTEMENT - 43m² - MARSEILLE,False,,Smart Investissement,5.4020905,43.3129057,172637.2,172637.2,1,,14 Avenue de Saint-Just,Studio,https://dj32ymiemc11o.cloudfront.net/eyJidWNrZXQiOiJvdGFyZWUtcHJvZHVjdGlvbi1maWxlcyIsImtleSI6IjRkZjRhNTk1OWNhZmEwMmU1OTM0MmZmYzVmMTNjNWZjNTA5MmE5NDgiLCJlZGl0cyI6eyJyZXNpemUiOnsid2lkdGgiOjM4MCwiaGVpZ2h0IjozMDAsImZpdCI6ImNvdmVyIn19fQ==?signature=29758408cc9b08a4cefca7b569bea053fde8644ffe39e0fbdf244cfabe1058fa
13600,LE SOLENT#8307a2e22be6,8307a2e22be6,A,La Ciotat,LE SOLENT,True,2023T4,Catella,5.6022828,43.1720638,153100,220500,2,,327 Boulevard de Narvik 256 rue Victor Delacour,T2|T3,https://dj32ymiemc11o.cloudfront.net/eyJidWNrZXQiOiJvdGFyZWUtcHJvZHVjdGlvbi1maWxlcyIsImtleSI6IjhjMDIxNzgwNTEyYjc1ZDg4YTVhNmE2YTIzZTA5NTJjMTFiMmYwYmYiLCJlZGl0cyI6eyJyZXNpemUiOnsid2lkdGgiOjM4MCwiaGVpZ2h0IjozMDAsImZpdCI6ImNvdmVyIn19fQ==?signature=d6cf434cc156ed74c93b72248718f9bf3427e24762eb12b2e9f14336dec36130
13830,Le Castelet - Colisee#50ec1406d102,50ec1406d102,A,Roquefort-la-Bédoule,Le Castelet - Colisee,True,2018T4,Revenu Pierre,5.6128189,43.2480087,162500,162500,1,,1675 Rte de Roquefort ,T1,https://dj32ymiemc11o.cloudfront.net/eyJidWNrZXQiOiJvdGFyZWUtcHJvZHVjdGlvbi1maWxlcyIsImtleSI6ImVjOTliZmEwNjhlMDdkMjkyYjE3OTdlZmZmMzIyOGM5OTRkNTAyZGUiLCJlZGl0cyI6eyJyZXNpemUiOnsid2lkdGgiOjM4MCwiaGVpZ2h0IjozMDAsImZpdCI6ImNvdmVyIn19fQ==?signature=ec36e093dab16ac9a83a4be69a48bdd7fa086b0e22c87a005ffdfb456242ca05
13005,Carre Saint Pierre#9a3e56e658e2,9a3e56e658e2,A,Marseille,Carre Saint Pierre,True,2015T4,Revenu Pierre,5.3925675,43.2920223,102500,114000,2,Student,98 rue Saint Pierre ,T1,https://dj32ymiemc11o.cloudfront.net/eyJidWNrZXQiOiJvdGFyZWUtcHJvZHVjdGlvbi1maWxlcyIsImtleSI6IjQ4NDEzODhiZmU5YjMwZjVlZjM2ZTc5NWJmNmExZmQyNGM4ZWE5OTkiLCJlZGl0cyI6eyJyZXNpemUiOnsid2lkdGgiOjM4MCwiaGVpZ2h0IjozMDAsImZpdCI6ImNvdmVyIn19fQ==?signature=ed53b6825d0d3d13adfa5b1fee8ac02c3c558bfbc5251d87d64ff217ce4c3a0c
13400,VILLA ORANE - Commerces#04750adeb5a4,04750adeb5a4,A,Aubagne,VILLA ORANE - Commerces,False,2025T3,Pichet (RP),5.5691426,43.2976497,105600,710976,5,,16 AVENUE ROGER SALENGRO,BUREAU,
13001,Maison T3 - 55 m2 - Marseille#2316540fb1c4,2316540fb1c4,A,Marseille,Maison T3 - 55 m2 - Marseille,True,2024T2,Masteos,5.390046,43.3021627,306700,306700,1,,Boulevard Longchamp,T3,https://dj32ymiemc11o.cloudfront.net/eyJidWNrZXQiOiJvdGFyZWUtcHJvZHVjdGlvbi1maWxlcyIsImtleSI6Ijc0ZTcxYmJlY2EwNmE5NjVlMDAzOTZiNGMwOGNlYWQzOTZhOTcyMmUiLCJlZGl0cyI6eyJyZXNpemUiOnsid2lkdGgiOjM4MCwiaGVpZ2h0IjozMDAsImZpdCI6ImNvdmVyIn19fQ==?signature=95795a8622d4eded21006789b45a7b4b9769894072ba14fcd6463adc7a8e70cb
13080,88 Gambetta#d261151e428d,d261151e428d,A,Aix-en-Provence,88 Gambetta,False,2026T2,Marignan,5.4586135,43.521205,1462600,1570800,4,,88 Cours Gambetta,Maison T6,https://dj32ymiemc11o.cloudfront.net/eyJidWNrZXQiOiJvdGFyZWUtcHJvZHVjdGlvbi1maWxlcyIsImtleSI6ImUxYmNhYjQwZWEyMGUxNGUxYjMxZWNjNzdhZTQ2OTJiNjcxMzc1YmYiLCJlZGl0cyI6eyJyZXNpemUiOnsid2lkdGgiOjM4MCwiaGVpZ2h0IjozMDAsImZpdCI6ImNvdmVyIn19fQ==?signature=9de53edbe9812ffe6dfde74ddcf799de13c2f347227b642a9af937987c0464b0
13010,Les Jardins d'Astra#415f2953cccd,415f2953cccd,A,Marseille,Les Jardins d'Astra,False,2025T4,Marignan,5.4141973,43.2762378,448300,585440.76,3,,45 Boulevard Saccoman,T2|T3|T4|T5,https://dj32ymiemc11o.cloudfront.net/eyJidWNrZXQiOiJvdGFyZWUtcHJvZHVjdGlvbi1maWxlcyIsImtleSI6ImNmZjVkNzkzODIwNzQzNzJjOTY3MDI1MWQxOWE1NmE3MTI2MjBiZDQiLCJlZGl0cyI6eyJyZXNpemUiOnsid2lkdGgiOjM4MCwiaGVpZ2h0IjozMDAsImZpdCI6ImNvdmVyIn19fQ==?signature=005d338880e7000a6f6ef78a0ba0d21e10d66d14d235f22b1b9e77028a3b89f0
13001,CARRE LAFAYETTE#76c0162f06c5,76c0162f06c5,A,Marseille,CARRE LAFAYETTE,False,,Histoire & Patrimoine,5.3817729,43.3005423,359000,517700,16,,40 RUE SAINT BAZILE,T1|T2|T3|T3 Duplex,https://dj32ymiemc11o.cloudfront.net/eyJidWNrZXQiOiJvdGFyZWUtcHJvZHVjdGlvbi1maWxlcyIsImtleSI6IjZmNmFmYjgyNDBjOTg3MGExMzEwOGNkNjY5ZjU3NGZmNGJmZTFiNzAiLCJlZGl0cyI6eyJyZXNpemUiOnsid2lkdGgiOjM4MCwiaGVpZ2h0IjozMDAsImZpdCI6ImNvdmVyIn19fQ==?signature=8c70b835ef35729266f34f7222b2d95bad224fbfb22ca1db0183ca87f0925d70
13002,Republique-Dames#2c6195d6ccbe,2c6195d6ccbe,A,Marseille,Republique-Dames,True,2015T4,Revenu Pierre,5.3711896,43.3023082,197000,197000,1,EHPAD,44 Bd des Dames ,T1,https://dj32ymiemc11o.cloudfront.net/eyJidWNrZXQiOiJvdGFyZWUtcHJvZHVjdGlvbi1maWxlcyIsImtleSI6IjkxNjdhOGYxZjFmNjVlMTQxNDJiNDBjNjc4Yjg5NDAxY2FmMjE0MDEiLCJlZGl0cyI6eyJyZXNpemUiOnsid2lkdGgiOjM4MCwiaGVpZ2h0IjozMDAsImZpdCI6ImNvdmVyIn19fQ==?signature=16854492af1fa20af392edbd72bbe32580da4fb6e6eebe4cc9f06f927d59f76a
13230,LES VOILES#df9f921fb872,df9f921fb872,B1,Port-Saint-Louis-du-Rhône,LES VOILES,False,2027T2,Spirit,4.803225,43.387847,134000,211500,11,,5 Rue Commandant Favier,T2|T3,https://dj32ymiemc11o.cloudfront.net/eyJidWNrZXQiOiJvdGFyZWUtcHJvZHVjdGlvbi1maWxlcyIsImtleSI6IjAwNzVkM2EyZmU2Y2FlNWNhYzc1MzhiOWFiYTU0NWEyY2VlN2YzYWQiLCJlZGl0cyI6eyJyZXNpemUiOnsid2lkdGgiOjM4MCwiaGVpZ2h0IjozMDAsImZpdCI6ImNvdmVyIn19fQ==?signature=1db81bce9caeacc7b9fb8eb1375def36a1a2ad20076049719c90693d9edf4f44
13015,CAP M' EUROMED 1#f6a5b71248c7,f6a5b71248c7,A,Marseille,CAP M' EUROMED 1,False,2026T4,Nexity,5.3667208,43.319582,254000,354881.5,7,,8 CHE M. DE LA MADRAGUE-VIL,T3|T4|T5,
13830,Residence d'Azur#3c59b81690a6,3c59b81690a6,A,Roquefort-la-Bédoule,Residence d'Azur,True,2016T4,Revenu Pierre,5.5776134,43.2510548,181200,181200,1,,12 Allee Pasteur ,T1,https://dj32ymiemc11o.cloudfront.net/eyJidWNrZXQiOiJvdGFyZWUtcHJvZHVjdGlvbi1maWxlcyIsImtleSI6ImFjM2ZkNzg5OGQwN2FiNWFmMjMxYWFhYmE0NWNjOGIwMjcwOTY5OTciLCJlZGl0cyI6eyJyZXNpemUiOnsid2lkdGgiOjM4MCwiaGVpZ2h0IjozMDAsImZpdCI6ImNvdmVyIn19fQ==?signature=944105e2e4d363c81a3ba97f7f1b31892e90ea25b6605a3da473a8063c9dd29a
13012,Confiden'Ciel#9203ce7c5f4c,9203ce7c5f4c,A,Marseille,Confiden'Ciel,False,2024T3,Urbat,5.4262756,43.3166202,379500,379500,1,,53 Boulevard Marius Richard 13012 Marseille,T2|T3|T4,https://dj32ymiemc11o.cloudfront.net/eyJidWNrZXQiOiJvdGFyZWUtcHJvZHVjdGlvbi1maWxlcyIsImtleSI6Ijk0OTY3NjllODZmZmFiMTJjMDg0ZTI1YzY4ZmJhYjIxMjMzYzEyMTQiLCJlZGl0cyI6eyJyZXNpemUiOnsid2lkdGgiOjM4MCwiaGVpZ2h0IjozMDAsImZpdCI6ImNvdmVyIn19fQ==?signature=96825845215fef6b600e26b76aca9580fb99c8a7885a6c1e5176571915f334a7
13013,HARMONIA 7#2d3a7164af3f,2d3a7164af3f,A,Marseille,HARMONIA 7,False,2025T2,Nexity,5.3712377,43.2839533,257000,296872.01,3,,5 CHE M. NOTRE DAME DE LA C,T2|T3,
13003,Studea Euromediterranee Neozen#cae134bc89fa,cae134bc89fa,A,Marseille,Studéa Euroméditerranée Neozen,True,2014T4,Consultim,5.3713859,43.3095808,69061.08,69061.08,1,Student,57 Rue Peyssonnel,Studio,https://dj32ymiemc11o.cloudfront.net/eyJidWNrZXQiOiJvdGFyZWUtcHJvZHVjdGlvbi1maWxlcyIsImtleSI6IjQzN2IyOWFhYjEyZDI3MDE4OTU0MmEzMDg3M2NhMDlhMmVjZWI4YzciLCJlZGl0cyI6eyJyZXNpemUiOnsid2lkdGgiOjM4MCwiaGVpZ2h0IjozMDAsImZpdCI6ImNvdmVyIn19fQ==?signature=7f50556f7bbebac196f7eb88a93121580f826f8d10673214511971e635c23dbd
13007,Appartement T2 - 52 m2 - Marseille#18c8f119ea88,18c8f119ea88,A,Marseille,Appartement T2 - 52 m2 - Marseille,True,2024T2,Masteos,5.3581738,43.2765169,391400,391400,1,,Corniche Président John Fitzgerald Kennedy,T2,https://dj32ymiemc11o.cloudfront.net/eyJidWNrZXQiOiJvdGFyZWUtcHJvZHVjdGlvbi1maWxlcyIsImtleSI6IjBlMzI5MjUyNGMwOTc4NTdlMmI1YTM2YzZkZDc0OTE4ODU3YWUzYjciLCJlZGl0cyI6eyJyZXNpemUiOnsid2lkdGgiOjM4MCwiaGVpZ2h0IjozMDAsImZpdCI6ImNvdmVyIn19fQ==?signature=8002bdd6d241164428ad3f41dd94e44e9ed43249d23ba27403337549e3f868c1
13100,Rue d'Italie#1cf19e08fb75,1cf19e08fb75,A,Aix-en-Provence,Rue d'Italie,False,2025T4,François 1er,5.4540086,43.5253728,452897,452897,1,,59 rue d'Italie,Studio|T2|T2 Bis,https://dj32ymiemc11o.cloudfront.net/eyJidWNrZXQiOiJvdGFyZWUtcHJvZHVjdGlvbi1maWxlcyIsImtleSI6IjM4MmEzN2RiMmEwZjQ0OGM3ZWY2YzE2NjFlNmYxNjYzY2Y1ZTQwMDQiLCJlZGl0cyI6eyJyZXNpemUiOnsid2lkdGgiOjM4MCwiaGVpZ2h0IjozMDAsImZpdCI6ImNvdmVyIn19fQ==?signature=bd1f7abc9dc6332e6327760d0d48dc2590b5a60edc81b03ecba93a0e327fafdf
13015,Medicis Marseille MARSEILLE 15eme - 13#e806845ae844,e806845ae844,A,Marseille,Médicis Marseille MARSEILLE 15ème - 13,True,,Pierre Loyers Conseil,5.3711017,43.3819603,145329.21,145329.21,1,EHPAD,"71, chemin des Baumillons",T1,https://dj32ymiemc11o.cloudfront.net/eyJidWNrZXQiOiJvdGFyZWUtcHJvZHVjdGlvbi1maWxlcyIsImtleSI6IjE5NDNmNzFmZGE0NjQ0ZDVkOGVjMTRhZTQ1ZWRjNDAzNmI5MmNkNDgiLCJlZGl0cyI6eyJyZXNpemUiOnsid2lkdGgiOjM4MCwiaGVpZ2h0IjozMDAsImZpdCI6ImNvdmVyIn19fQ==?signature=13bdc6728156fac06c324d83e95004ce6c2fbfdee697fa87ee1e6f6ff4e2008f
13010,CAMPUS 98#82a460b48cdc,82a460b48cdc,A,Marseille,CAMPUS 98,False,2025T4,Pichet (Investissement),5.4050336,43.2855291,163000,199000,7,,98 RUE MATHURIN,PRDC|T1|T2,https://dj32ymiemc11o.cloudfront.net/eyJidWNrZXQiOiJvdGFyZWUtcHJvZHVjdGlvbi1maWxlcyIsImtleSI6IjI2NTA2OGQ4NzY5YzVkZjJkYjZhOTEwMDUxMTJmNzNlY2QyOWRiMjUiLCJlZGl0cyI6eyJyZXNpemUiOnsid2lkdGgiOjM4MCwiaGVpZ2h0IjozMDAsImZpdCI6ImNvdmVyIn19fQ==?signature=278f704d32edbac3426ac18d9e9a125db0f92690e5838ebfb3203be801d8717f
13330,Villas Pelissanne#e9403a3f47a4,e9403a3f47a4,A,Pélissanne,Villas Pélissanne,False,2026T4,Woodeum X Pitch Immo,5.1439815,43.6317116,395000,459000,5,,43 ALLES DE CRAPONNE,Maison T4,
13001,Appartement T1 - 23 m2 - Marseille#c7be54ac9b31,c7be54ac9b31,A,Marseille,Appartement T1 - 23 m2 - Marseille,True,2024T2,Masteos,5.3775239,43.2949271,144000,144000,1,,Rue Vacon,T1,https://dj32ymiemc11o.cloudfront.net/eyJidWNrZXQiOiJvdGFyZWUtcHJvZHVjdGlvbi1maWxlcyIsImtleSI6IjYyZmJkYjJkZDlhMWQ4MTgyMTI3MDNkZDEyN2RjMzgwZDhmNjUxZDUiLCJlZGl0cyI6eyJyZXNpemUiOnsid2lkdGgiOjM4MCwiaGVpZ2h0IjozMDAsImZpdCI6ImNvdmVyIn19fQ==?signature=30f8cdf06594809dfff0cdcefd5f97fecae859dcbf3c1f76aa04f1e0af38b5c8
13006,Heritage#0b1e1dfef4e1,0b1e1dfef4e1,A,Marseille,Héritage,False,2025T2,Marignan,5.3757366,43.2862228,377600,1176700,5,,22 Rue de Montevideo,T1|T2|T3|T4|T5|T6,https://dj32ymiemc11o.cloudfront.net/eyJidWNrZXQiOiJvdGFyZWUtcHJvZHVjdGlvbi1maWxlcyIsImtleSI6ImNiNGE4MzZhNmQ0MWRkMzAwN2Q1ZjI3ODM3NmViMjYzZTg2YTlkODgiLCJlZGl0cyI6eyJyZXNpemUiOnsid2lkdGgiOjM4MCwiaGVpZ2h0IjozMDAsImZpdCI6ImNvdmVyIn19fQ==?signature=35a6580d451474d3f9c764b7a9afff501c80cc874f7ee8602e15568fe5ec79ce
13003,Adagio Marseille Saint Charles#1359dc4812f3,1359dc4812f3,A,Marseille,Adagio Marseille Saint Charles,True,2006T4,Pierre & Sens,5.3818357,43.3046085,74592,74592,1,Business,23 rue Honnorat,Studio,https://dj32ymiemc11o.cloudfront.net/eyJidWNrZXQiOiJvdGFyZWUtcHJvZHVjdGlvbi1maWxlcyIsImtleSI6IjI5ZWRmMTFjZDJkZWZjOGIyZTJlM2E1ZGI3MjlkYWVjZDY3MTRlZDMiLCJlZGl0cyI6eyJyZXNpemUiOnsid2lkdGgiOjM4MCwiaGVpZ2h0IjozMDAsImZpdCI6ImNvdmVyIn19fQ==?signature=de7448059865a7ddc7c345a06310cd6fdff00526431462bf5a224b839505c3df
13008,CRISTO#92aff3fbf506,92aff3fbf506,A,Marseille,CRISTO,False,2025T1,Constructa,5.3841755,43.266409,773000,1405000,3,,12 Bis Boulevard Pèbr,T2|T3|T4|T5,
13007,Appartement T1 - 41.45 m2 - Marseille#7b0a46a5f984,7b0a46a5f984,A,Marseille,Appartement T1 - 41.45 m2 - Marseille,True,2024T2,Masteos,5.3691252,43.2903061,211000,211000,1,,Boulevard de la Corderie,T1,https://dj32ymiemc11o.cloudfront.net/eyJidWNrZXQiOiJvdGFyZWUtcHJvZHVjdGlvbi1maWxlcyIsImtleSI6IjU2MGExMTkxZDgwYmU5OTY5MzAzYjdmNDM4NTU4YjAxN2JjY2M2YmIiLCJlZGl0cyI6eyJyZXNpemUiOnsid2lkdGgiOjM4MCwiaGVpZ2h0IjozMDAsImZpdCI6ImNvdmVyIn19fQ==?signature=3c70f59fb96cfa2ee4967334bf6cd629e1cbf97f712455afefecd41cc57e92dc
13001,Artemisia - Marseille - Campus Canebiere - 146#d056c339da28,d056c339da28,A,Marseille,Artémisia - Marseille - Campus Canebière - 146,False,,Attentif LMNP,5.3835467,43.29794,75382,75382,1,Student,9 Rue Sénac de Meilhan,Studio,
13080,Domaine Saint Marc#703388fc5df6,703388fc5df6,A,Aix-en-Provence,Domaine Saint Marc,False,2025T2,Catella,5.478392,43.5351489,455400,455400,1,,154 avenue Jean et Marcel de Fontenaille,T2|T3|T4,https://dj32ymiemc11o.cloudfront.net/eyJidWNrZXQiOiJvdGFyZWUtcHJvZHVjdGlvbi1maWxlcyIsImtleSI6ImIyNGRiNTU0Y2E0YmMxZDRlNmZmMzhlMWFlOGU1YTE3YjU5MzNiOGUiLCJlZGl0cyI6eyJyZXNpemUiOnsid2lkdGgiOjM4MCwiaGVpZ2h0IjozMDAsImZpdCI6ImNvdmVyIn19fQ==?signature=f4bd18ca4b96b7567051f2c9acc76409611763c3460fe50d249f93b52a75dec2
13127,HORIZON ROCHER#eafb97adc211,eafb97adc211,A,Vitrolles,HORIZON ROCHER,False,2025T1,Urbat,5.245297,43.4555733,240500,388000,16,,51 avenue Jean Moulin 13127,T2|T3|T4,https://dj32ymiemc11o.cloudfront.net/eyJidWNrZXQiOiJvdGFyZWUtcHJvZHVjdGlvbi1maWxlcyIsImtleSI6Ijk5OWQ2NjI0YjM1OGZiOWZjMDY0ZDM0NWExMjdiMjU3NGVhYmEzM2IiLCJlZGl0cyI6eyJyZXNpemUiOnsid2lkdGgiOjM4MCwiaGVpZ2h0IjozMDAsImZpdCI6ImNvdmVyIn19fQ==?signature=0271638d4fa10ad7956e37eef310f30d29de9f39e24e2041629a1455f0d69564
13200,COULEUR LAVANDE#05eaae7ba00b,05eaae7ba00b,B1,Arles,COULEUR LAVANDE,False,,Carrere,4.6204619,43.6705099,218800,280000,3,,9 RUE FERNAND BENOIT,T2|T3|T4,https://dj32ymiemc11o.cloudfront.net/eyJidWNrZXQiOiJvdGFyZWUtcHJvZHVjdGlvbi1maWxlcyIsImtleSI6ImQ4NDhkY2RhMjc5Y2Y5M2QxYzVmNWRjYjY1MzliYjI2MGRiMzhlOTgiLCJlZGl0cyI6eyJyZXNpemUiOnsid2lkdGgiOjM4MCwiaGVpZ2h0IjozMDAsImZpdCI6ImNvdmVyIn19fQ==?signature=f2883fbc931f6ef135180050b29e132bc6089e4414cf6d0ff094515251b810bf
13010,(STUDEA) Residence etudiante Studea Marseille Timone#cff52b84606c,cff52b84606c,A,Marseille,(STUDEA) Résidence étudiante Studéa Marseille Timone,True,,iSelection,5.3995781,43.2862077,98100,98100,1,Student,"9 Rue du Canada, 13010 Marseille",Studio|T1,
13200,LES RIVES DU JONQUET#5cb9e4a98d37,5cb9e4a98d37,B1,Arles,LES RIVES DU JONQUET,False,2026T3,Pichet (RP),4.6435667,43.6790735,152975,183000,28,,CHEMIN DES JONQUETS,T2,https://dj32ymiemc11o.cloudfront.net/eyJidWNrZXQiOiJvdGFyZWUtcHJvZHVjdGlvbi1maWxlcyIsImtleSI6Ijg2YzcxNzhhZTNhODdhNmIwYmVmZmFiZWZiYTQ5YWE1NmFlYjMyNTAiLCJlZGl0cyI6eyJyZXNpemUiOnsid2lkdGgiOjM4MCwiaGVpZ2h0IjozMDAsImZpdCI6ImNvdmVyIn19fQ==?signature=df1ed6e60997a39d66058446a4ccaf36297d5fc2950dc898995459bd45ebc9bd
13010,Appartement T2 - 38.48 m2 - Marseille#c24927cca776,c24927cca776,A,Marseille,Appartement T2 - 38.48 m2 - Marseille,True,2024T2,Masteos,5.4006508,43.273384,142100,142100,1,,Boulevard Schloesing,T2,https://dj32ymiemc11o.cloudfront.net/eyJidWNrZXQiOiJvdGFyZWUtcHJvZHVjdGlvbi1maWxlcyIsImtleSI6ImQ3YjM3ODYzOGMzNzNjNmE0OTI4MzhmMTk4ZDk5ZTE0NGU2NGI2YTciLCJlZGl0cyI6eyJyZXNpemUiOnsid2lkdGgiOjM4MCwiaGVpZ2h0IjozMDAsImZpdCI6ImNvdmVyIn19fQ==?signature=da041bcce0b7bc24df7382a5173f096f09b55f374f225390d645145d876cc5ed
13002,Coeur Joliette#33c60903a41a,33c60903a41a,A,Marseille,Cœur Joliette,False,2025T4,SAS Medicis,5.3697954,43.3044948,281520,301240,11,,3A rue d’Hozier,T2,https://dj32ymiemc11o.cloudfront.net/eyJidWNrZXQiOiJvdGFyZWUtcHJvZHVjdGlvbi1maWxlcyIsImtleSI6ImNlZDc1ZThhY2JhODY5MmExZTFmMTM2MWRjNjBlNjcwOWFlZDI4MTQiLCJlZGl0cyI6eyJyZXNpemUiOnsid2lkdGgiOjM4MCwiaGVpZ2h0IjozMDAsImZpdCI6ImNvdmVyIn19fQ==?signature=3bf388ab68cc238270d647e9294a41dfa922a25d2a3cc7d71a217ba64e991863
13800,RSS LES JARDINS D'ARCADIE 1#2be841bcc99a,2be841bcc99a,A,Istres,RSS LES JARDINS D'ARCADIE 1,False,2026T4,Nexity,4.986238,43.5117102,172499.99,267499.99,26,Senior,23 BD DETHEZ,T1|T2|T3,
13004,Appartement T1 - 20 m2 - Marseille#e2109843ab90,e2109843ab90,A,Marseille,Appartement T1 - 20 m2 - Marseille,True,2024T2,Masteos,5.3984349,43.3049573,111000,111000,1,,Rue Lacépède,T1,https://dj32ymiemc11o.cloudfront.net/eyJidWNrZXQiOiJvdGFyZWUtcHJvZHVjdGlvbi1maWxlcyIsImtleSI6IjE3OWI4YzMwOTA1MmI5ZmVkYjRiMTM4MWVjZTU4NzY1ZjRkYTY2YWYiLCJlZGl0cyI6eyJyZXNpemUiOnsid2lkdGgiOjM4MCwiaGVpZ2h0IjozMDAsImZpdCI6ImNvdmVyIn19fQ==?signature=9f8df645a8db908157251f7ee0c44fd6a56af087aaddfeee2f3772c0e3134bf1
13012,City Residence Marseille#5d8371b30dbc,5d8371b30dbc,A,Marseille,City Residence Marseille,True,2009T4,Revenu Pierre,5.4201236,43.2923629,43000,43000,1,Business,515 Rue Saint Pierre ,T1,https://dj32ymiemc11o.cloudfront.net/eyJidWNrZXQiOiJvdGFyZWUtcHJvZHVjdGlvbi1maWxlcyIsImtleSI6IjJkYjc5MjMxNmRmMTRkMDgzMzEzODc2ZmU1MjRkZjhmMzJjZGU3OGQiLCJlZGl0cyI6eyJyZXNpemUiOnsid2lkdGgiOjM4MCwiaGVpZ2h0IjozMDAsImZpdCI6ImNvdmVyIn19fQ==?signature=8799415c7fe043af46a8ab1d5fefee0f20538ba0b9c132363b290136c3546c61
13790,Le Village Vert de Rousset#e1e8f4a66b9e,e1e8f4a66b9e,A,Rousset,Le Village Vert de Rousset,True,2005T4,Revenu Pierre,5.6058605,43.4668262,85400,85400,1,Tourism,"318, avenue Francis Perrin ",Duplex|Villa,https://dj32ymiemc11o.cloudfront.net/eyJidWNrZXQiOiJvdGFyZWUtcHJvZHVjdGlvbi1maWxlcyIsImtleSI6ImU5YTI0NzM2ZDk2YTQwZDUwNmFkNDRjMGU5ZmU3MzhlZDg2NjI4YTUiLCJlZGl0cyI6eyJyZXNpemUiOnsid2lkdGgiOjM4MCwiaGVpZ2h0IjozMDAsImZpdCI6ImNvdmVyIn19fQ==?signature=3b616ded20736f30bf65d70c15ee6ce990b037814f51408c9716b702559975b8
13002,Appartement T2 - 41 m2 - Marseille#1da53fe7880e,1da53fe7880e,A,Marseille,Appartement T2 - 41 m2 - Marseille,True,2024T2,Masteos,5.3699898,43.3080677,185072.54,185072.54,1,,Rue Chevalier Paul,T2,https://dj32ymiemc11o.cloudfront.net/eyJidWNrZXQiOiJvdGFyZWUtcHJvZHVjdGlvbi1maWxlcyIsImtleSI6IjBiYjI4M2QxZGFjMDYyYmYwZDNhYmY1MTc0NjQxZDQyNmM3NzM3ZDQiLCJlZGl0cyI6eyJyZXNpemUiOnsid2lkdGgiOjM4MCwiaGVpZ2h0IjozMDAsImZpdCI6ImNvdmVyIn19fQ==?signature=634672abf2eddcc8eadd93e004160206fc654fa1587a577b914c74b761d28558
13001,Centre Vieux Port#6b06d27145f1,6b06d27145f1,A,Marseille,Centre Vieux Port,True,1993T3,Consultim,5.3747964,43.3005358,105719.83,105719.83,1,Business,4 place Pierre Bertas,T1,https://dj32ymiemc11o.cloudfront.net/eyJidWNrZXQiOiJvdGFyZWUtcHJvZHVjdGlvbi1maWxlcyIsImtleSI6ImNhOGRhMTMyYzNjNDU1ZDJkOTUwYTBiOTMyMjRjY2EzZTU4OTJkZDQiLCJlZGl0cyI6eyJyZXNpemUiOnsid2lkdGgiOjM4MCwiaGVpZ2h0IjozMDAsImZpdCI6ImNvdmVyIn19fQ==?signature=741cd16efa11b699979c2c7277b4d1c93b43af923c5399372a725963d1ad5b38
13600,Les Lanternes Bleues#9466e89963e5,9466e89963e5,A,La Ciotat,Les Lanternes Bleues,True,2018T1,Domitys Invest,5.6130679,43.1976925,199000,199000,1,,87 Avenue Georges Pompidou,T2,
13003,Studea Marseille Croix d'Azur#117cafb4d4e5,117cafb4d4e5,A,Marseille,Studéa Marseille Croix d'Azur,True,2012T1,CELAVi pierre,5.3736719,43.3055448,66956.29,78442.5,9,Student,2 Rue du Pasteur Heuzé,Chambre|Studio|T1 Bis|T2|T2 Duplex|T3,https://dj32ymiemc11o.cloudfront.net/eyJidWNrZXQiOiJvdGFyZWUtcHJvZHVjdGlvbi1maWxlcyIsImtleSI6IjVhMWMyMDE5ZmUyOWNmMTMyYmY5Mzk4ZDMyNTQyZDkyZjBlMzVhZDIiLCJlZGl0cyI6eyJyZXNpemUiOnsid2lkdGgiOjM4MCwiaGVpZ2h0IjozMDAsImZpdCI6ImNvdmVyIn19fQ==?signature=e49c25c0bd7b34ceac5f1b91ebc24b54ce7bc6dad28c66ac1bd8657219ff9da6
13013,THE HIVE (VA)#d9ce14c68927,d9ce14c68927,A,Marseille,THE HIVE (VA),False,2026T3,Valority Partners,5.4428468,43.3417234,90950,100350,25,,"207, rue Albert Einstein",T1|T3,
13270,Les Jardins du Mazet#c6fe071f80f8,c6fe071f80f8,A,Fos-sur-Mer,Les Jardins du Mazet,True,2005T4,Revenu Pierre,4.9421626,43.4554279,104600,104600,1,,Rue de la Pinede ,T1,https://dj32ymiemc11o.cloudfront.net/eyJidWNrZXQiOiJvdGFyZWUtcHJvZHVjdGlvbi1maWxlcyIsImtleSI6ImU5NTQxZjEyMzZiNmJkZTJjZjdjYjVjYWNjNTg3OGIwNGE4MTZkNmEiLCJlZGl0cyI6eyJyZXNpemUiOnsid2lkdGgiOjM4MCwiaGVpZ2h0IjozMDAsImZpdCI6ImNvdmVyIn19fQ==?signature=1fda1aacd01d58f13169d952f71ad22ac8af0fe9dd4e20f4f12d570c9db79a6b
13010,Residence etudiante Studea Marseille Timone#bb627b03892e,bb627b03892e,A,Marseille,Résidence étudiante Studéa Marseille Timone,True,,iSelection,5.3992702,43.2860977,80500,80500,1,Student,"9 Rue du Canada, 13010 Marseille",Studio|T1,
13006,APPARTEMENT - 80m2 - MARSEILLE#e4643f2ae5be,e4643f2ae5be,A,Marseille,APPARTEMENT - 80m² - MARSEILLE,False,,Smart Investissement,5.3830527,43.2912344,355208.5,355208.5,1,,"67, Cours Lieutaud",T3 Chambre,https://dj32ymiemc11o.cloudfront.net/eyJidWNrZXQiOiJvdGFyZWUtcHJvZHVjdGlvbi1maWxlcyIsImtleSI6IjYxZTBmNjE0MGFjYWFhYmViYjQ3MTBkNDIzOWJmMzgxMzA3YjgyYTYiLCJlZGl0cyI6eyJyZXNpemUiOnsid2lkdGgiOjM4MCwiaGVpZ2h0IjozMDAsImZpdCI6ImNvdmVyIn19fQ==?signature=c320df6a7634ff4eddb3bf7e1a745e526cfc97ab8b58b1dbf8733353be46477b
13005,Marseille Timone II#fbe959f0a8d9,fbe959f0a8d9,A,Marseille,Marseille Timone II,True,2014T3,Consultim,5.4090906,43.291819,80032.39,80032.39,1,Student,2 Rue Pascal Ruinat,Studio,https://dj32ymiemc11o.cloudfront.net/eyJidWNrZXQiOiJvdGFyZWUtcHJvZHVjdGlvbi1maWxlcyIsImtleSI6Ijk1ZjVjYzRjYjAyYjA3YzFmMjJmMmY5ZDM3ZmI4NmIxMThhOTE4Y2IiLCJlZGl0cyI6eyJyZXNpemUiOnsid2lkdGgiOjM4MCwiaGVpZ2h0IjozMDAsImZpdCI6ImNvdmVyIn19fQ==?signature=9925e5f365f6f705d438592d3941b1d717fb2600551da5614b692ef629b3bb99
13002,Appart City Classic Marseille Euromed#31ab1fda165d,31ab1fda165d,A,Marseille,Appart City Classic Marseille Euromed,True,2012T1,CELAVi pierre,5.3696037,43.3149286,86098.94,90215.42,3,EHPAD,118/120 rue de Ruffi ,Chambre|Studio|T1 Bis|T2|T2 Duplex|T3,https://dj32ymiemc11o.cloudfront.net/eyJidWNrZXQiOiJvdGFyZWUtcHJvZHVjdGlvbi1maWxlcyIsImtleSI6IjdkNDJiYjdmMTJiNjZiNDAxY2QzZjYwYzIwY2NjYzljMTFmYzFjZWIiLCJlZGl0cyI6eyJyZXNpemUiOnsid2lkdGgiOjM4MCwiaGVpZ2h0IjozMDAsImZpdCI6ImNvdmVyIn19fQ==?signature=eaacc3ed8a9a3c4cd7a9f372d67b26b80c28ff5c5c7c1d219ddeea16b6b69e55
13014,LE MURILLO#b0b40fcc5f81,b0b40fcc5f81,A,Marseille,LE MURILLO,False,2025T2,Constructa,5.4017701,43.3423378,162000,259000,12,,Rue Gabriel Audisio,T1|T2|T3|T4|T4 Duplex,https://dj32ymiemc11o.cloudfront.net/eyJidWNrZXQiOiJvdGFyZWUtcHJvZHVjdGlvbi1maWxlcyIsImtleSI6IjI3ODllZmE1Njk0ZTNjMmNmNGRjN2IyOTRkM2IxMmNmYzJhMmU5NzQiLCJlZGl0cyI6eyJyZXNpemUiOnsid2lkdGgiOjM4MCwiaGVpZ2h0IjozMDAsImZpdCI6ImNvdmVyIn19fQ==?signature=a3ce5e4015eaa59dd2949bee054a16ca03cf303f94adb0d9d8bf30ab8e95c2ca
13002,Appartement T3 - 87 m2 - Marseille#97ec2a5ae08f,97ec2a5ae08f,A,Marseille,Appartement T3 - 87 m2 - Marseille,True,2024T2,Masteos,5.3685506,43.2962788,608000,608000,1,,Rue de la Loge,T3,https://dj32ymiemc11o.cloudfront.net/eyJidWNrZXQiOiJvdGFyZWUtcHJvZHVjdGlvbi1maWxlcyIsImtleSI6IjQ4ODIwYWZkYTY0OWJjYWJlYTgyYWY3ZmI1MDZjNzdmYmZiOThjNTgiLCJlZGl0cyI6eyJyZXNpemUiOnsid2lkdGgiOjM4MCwiaGVpZ2h0IjozMDAsImZpdCI6ImNvdmVyIn19fQ==?signature=a950e59de35e991a240f8e3c350e69a232a7544c73d17e2a02a8f0503cc774ea
13100,MOSAIK#d386daab9570,d386daab9570,A,Aix-en-Provence,MOSAIK,False,2026T1,Vinci Immobilier,5.4181327,43.5216633,334268,531184.83,10,,80 ROUTE DE VALCROS,T1|T2|T3|T4|T5,
13006,Appartement T1 - 29 m2 - Marseille#e362fc9ba769,e362fc9ba769,A,Marseille,Appartement T1 - 29 m2 - Marseille,True,2024T2,Masteos,5.3837241,43.2946835,156320,156320,1,,Rue Vian,T1,https://dj32ymiemc11o.cloudfront.net/eyJidWNrZXQiOiJvdGFyZWUtcHJvZHVjdGlvbi1maWxlcyIsImtleSI6Ijc1OWFlN2FlZjUxOTNjYzA2ZGVhMTk2MmJiZTJhZDg5MTZjMDk1MTAiLCJlZGl0cyI6eyJyZXNpemUiOnsid2lkdGgiOjM4MCwiaGVpZ2h0IjozMDAsImZpdCI6ImNvdmVyIn19fQ==?signature=6effc74724a3105866399d438a029e5307814584451f20b839763ce827d93dbb
13160,Le Canotier#39cdc42dc5da,39cdc42dc5da,B1,Châteaurenard,Le Canotier,False,2026T3,Marignan,4.8594421,43.8857707,171900,332000,7,,12b Rue Roger Ginoux,T2|T3|T4,https://dj32ymiemc11o.cloudfront.net/eyJidWNrZXQiOiJvdGFyZWUtcHJvZHVjdGlvbi1maWxlcyIsImtleSI6ImZkZDYwZjU3ZDg3ZjA5N2VlODlmNGQ1NDY4NTYxYzk0ODVjNzUxNGEiLCJlZGl0cyI6eyJyZXNpemUiOnsid2lkdGgiOjM4MCwiaGVpZ2h0IjozMDAsImZpdCI6ImNvdmVyIn19fQ==?signature=51efc0580237fa375dae0d93dfd0d528334001d41ca6b1ee9edcc946aba3606e
13003,Le 124#5c7103ba6ad7,5c7103ba6ad7,A,Marseille,Le 124,True,2015T3,Consultim,5.3826266,43.3073362,58919.35,91879.38,6,Student,124 boulevard National,Studio|T1|T2,https://dj32ymiemc11o.cloudfront.net/eyJidWNrZXQiOiJvdGFyZWUtcHJvZHVjdGlvbi1maWxlcyIsImtleSI6IjBkYjMwNzdiZDc5NDIyMGMwNTA2ODcxZDhmM2I0Y2E0MzRmZmM0NGYiLCJlZGl0cyI6eyJyZXNpemUiOnsid2lkdGgiOjM4MCwiaGVpZ2h0IjozMDAsImZpdCI6ImNvdmVyIn19fQ==?signature=ea02c22bed5725e763ad1fb7da309ceb3f889da3b6ee84f3cd5592810aa3b13c
13004,CAMPUS 55#e84f81263669,e84f81263669,A,Marseille,CAMPUS 55,False,2025T3,Ogic,5.4005118,43.3035573,108400,108400,1,,55 Boulevard Françoise Duparc,T1,
13014,Residis - Marseille - La Major#c8ef8fd21af5,c8ef8fd21af5,A,Marseille,Résidis - Marseille - La Major,False,,Attentif LMNP,5.4077564,43.3415975,88382,88382,1,Student,100 avenue Merlan,T1,
13003,RESIDENCE PROVENCE#27f887729a28,27f887729a28,A,Marseille,RESIDENCE PROVENCE,False,,La Référence Pierre,5.3821796,43.3070784,81031.07,81031.07,1,,119/121 Boulevard national,TStudio,
13111,EVEIL#e4c9a2eb990f,e4c9a2eb990f,B1,Coudoux,EVEIL,False,2027T1,Spirit,5.2554526,43.5518738,180000,448999.91,17,,route de velaux,T1|T2|T3|T4,https://dj32ymiemc11o.cloudfront.net/eyJidWNrZXQiOiJvdGFyZWUtcHJvZHVjdGlvbi1maWxlcyIsImtleSI6IjJhYjYxOWJmYjExZmZmNmQxNDQwMWNmZGRlYjJmODFiMWFlMDJhYzAiLCJlZGl0cyI6eyJyZXNpemUiOnsid2lkdGgiOjM4MCwiaGVpZ2h0IjozMDAsImZpdCI6ImNvdmVyIn19fQ==?signature=b455cefaac865586f0b7bd3cbdd6652be0a58c30ade8c47739c78c116c1ce88b
13730,La Filosette#6dbd7131eb1a,6dbd7131eb1a,A,Saint-Victoret,La Filosette,True,2010T4,Consultim,5.2359054,43.4142813,180173.13,180173.13,1,EHPAD,485 avenue Guillaume Apollinaire,Chambre|Chambre simple,
13013,LE CLOS DES ACACIAS#eb6b03aa0ee4,eb6b03aa0ee4,A,Marseille,LE CLOS DES ACACIAS,False,2026T2,Les Nouveaux Constructeurs,5.4208046,43.33101,236056,334800,8,,RUE LAZARE BARIELLE,T2|T2 Duplex|T3|T3 Duplex|T4|T4 Duplex,https://dj32ymiemc11o.cloudfront.net/eyJidWNrZXQiOiJvdGFyZWUtcHJvZHVjdGlvbi1maWxlcyIsImtleSI6IjNiNWM3MjkzMTU5NTMzYzUxNWM0ZDQzNmQzMjFhZWIwMzg4MDc3NjYiLCJlZGl0cyI6eyJyZXNpemUiOnsid2lkdGgiOjM4MCwiaGVpZ2h0IjozMDAsImZpdCI6ImNvdmVyIn19fQ==?signature=595ac1b48bc8492a11432856b3ed388694b08c435c2994f5716250356d4e2de1
13006,Appartement T1 - 22.5 m2 - Marseille#7ab756437a41,7ab756437a41,A,Marseille,Appartement T1 - 22.5 m2 - Marseille,True,2024T2,Masteos,5.391112,43.285751,130500,130500,1,,Traverse Raynouard,T1,https://dj32ymiemc11o.cloudfront.net/eyJidWNrZXQiOiJvdGFyZWUtcHJvZHVjdGlvbi1maWxlcyIsImtleSI6IjhjNjllNjRiMTQ2NDMyNmNjYmIxYTU0MjBkNDRiYzE0MDFhY2FiMjkiLCJlZGl0cyI6eyJyZXNpemUiOnsid2lkdGgiOjM4MCwiaGVpZ2h0IjozMDAsImZpdCI6ImNvdmVyIn19fQ==?signature=41d273b165137d12be517d3c0ca9923221f671b27b7c904ee52ba408dff8fa18
13530,PRIMAVERA 5#7dd39f860d71,7dd39f860d71,A,Trets,PRIMAVERA 5,False,2025T2,Nexity,5.6810179,43.4487261,229000,241000,3,,487 AV . RENÉ CASSIN,T2,
13006,APPARTEMENT - 45m2 - MARSEILLE#1f264d92699f,1f264d92699f,A,Marseille,APPARTEMENT - 45m² - MARSEILLE,False,,Smart Investissement,5.3829782,43.2923961,179122,179122,1,,"6, Place Paul Cézanne",T1 Chambre,https://dj32ymiemc11o.cloudfront.net/eyJidWNrZXQiOiJvdGFyZWUtcHJvZHVjdGlvbi1maWxlcyIsImtleSI6IjZhNDU5M2FiOTIwNWVhN2Q4Mzc4M2NkZDA2NTA5YWU4NGM1NDNlYmQiLCJlZGl0cyI6eyJyZXNpemUiOnsid2lkdGgiOjM4MCwiaGVpZ2h0IjozMDAsImZpdCI6ImNvdmVyIn19fQ==?signature=68dd9c9aad7d7ea185026f1f1d2f55ed3ab09ca6614e27219b8ced812846698b
13004,Appartement T2 - 31 m2 - Marseille#f208049255c0,f208049255c0,A,Marseille,Appartement T2 - 31 m2 - Marseille,True,2024T2,Masteos,5.3984349,43.3049573,151000,151000,1,,Rue Lacépède,T2,https://dj32ymiemc11o.cloudfront.net/eyJidWNrZXQiOiJvdGFyZWUtcHJvZHVjdGlvbi1maWxlcyIsImtleSI6IjdiNTgzYmRkODg4MDY0YmU4YTQ4MTBjN2Q4ZjY5NTMwOGMzNTEyYjIiLCJlZGl0cyI6eyJyZXNpemUiOnsid2lkdGgiOjM4MCwiaGVpZ2h0IjozMDAsImZpdCI6ImNvdmVyIn19fQ==?signature=975254b60bda865ce3729f9806d995c5e6570e536e7253f591eff6d92ba0a9cd
13200,QUAI DES ARTS 3#15eaaf24ecad,15eaaf24ecad,B1,Arles,QUAI DES ARTS 3,True,2024T2,Nexity,4.6252627,43.6675119,186000,186000,1,,4 RUE GASPARD MONGE,T2|T3,
13008,280 PRADO 7#6034064cb307,6034064cb307,A,Marseille,280 PRADO 7,True,2024T3,Nexity,5.3899227,43.2738798,1012000,1012000,1,,276 AV . DU PRADO,T4,
13005,Studea Marseille Ferrari#af0f5ca22ab4,af0f5ca22ab4,A,Marseille,Studea Marseille Ferrari,True,2012T4,Revenu Pierre,5.3898163,43.2934756,90300,90300,1,Student,60-62 Rue Ferrari ,T2,https://dj32ymiemc11o.cloudfront.net/eyJidWNrZXQiOiJvdGFyZWUtcHJvZHVjdGlvbi1maWxlcyIsImtleSI6IjM5YTQ1MmVmZjQ5NzhkZGZiNmQxODlkN2QxMzZkOGI0YzY2ZTU0NGIiLCJlZGl0cyI6eyJyZXNpemUiOnsid2lkdGgiOjM4MCwiaGVpZ2h0IjozMDAsImZpdCI6ImNvdmVyIn19fQ==?signature=2cba83b5c864b6997575f5a4270faca8bffd705fbbb8c81d805adf5ed9e28734
13010,MARSEILLE TIMONE#567b666d0976,567b666d0976,A,Marseille,MARSEILLE TIMONE,True,2004T4,Consultim,5.4005485,43.2838373,64818.09,82250.58,7,Student,2 rue Antoine Blanc,Studio,https://dj32ymiemc11o.cloudfront.net/eyJidWNrZXQiOiJvdGFyZWUtcHJvZHVjdGlvbi1maWxlcyIsImtleSI6IjUyODk4ZjJhOTJiZjFhNGE2Nzk1YjUwODYxYjM3NjllYzk5NzdhMWMiLCJlZGl0cyI6eyJyZXNpemUiOnsid2lkdGgiOjM4MCwiaGVpZ2h0IjozMDAsImZpdCI6ImNvdmVyIn19fQ==?signature=000db6002738bb1b5c807a54e49f9d55492a21671f1e723cfebb1f4e94f43ae4
13010,Bastide Centhis#f9ac6d51eaaa,f9ac6d51eaaa,A,Marseille,Bastide Centhis,False,2025T4,Sogeprom,5.4294618,43.2820247,229000,478862.55,26,,31 boulevard de Saint Loup,T2|T3|T4,https://dj32ymiemc11o.cloudfront.net/eyJidWNrZXQiOiJvdGFyZWUtcHJvZHVjdGlvbi1maWxlcyIsImtleSI6Ijg4N2IzNjEwMGEwMjhjYTNkNzgzZDUxNzEwZDAxZTQ3Y2U5Y2RjMDMiLCJlZGl0cyI6eyJyZXNpemUiOnsid2lkdGgiOjM4MCwiaGVpZ2h0IjozMDAsImZpdCI6ImNvdmVyIn19fQ==?signature=c6982d2d883ee0866b7b1eb0cdc6c3bfacba1b51e3d330088c43ad60378d6244
13090,Pavillon Jourdan#cbb7a4762285,cbb7a4762285,A,Aix-en-Provence,Pavillon Jourdan,False,2025T1,Sagec,5.4495428,43.516096,520000,585000,4,,5/7 chemin du Moulin de Testas,T1|T3|T4,https://dj32ymiemc11o.cloudfront.net/eyJidWNrZXQiOiJvdGFyZWUtcHJvZHVjdGlvbi1maWxlcyIsImtleSI6IjBkYTZlN2U5NWUxMGM3YjYyYWEzYTFkYWFhYzRmMTdkMjIyZWEyYmUiLCJlZGl0cyI6eyJyZXNpemUiOnsid2lkdGgiOjM4MCwiaGVpZ2h0IjozMDAsImZpdCI6ImNvdmVyIn19fQ==?signature=6587765413e1f61f3d0157f32689d52f8a923f59698c0986c5438ece9ce53ea2
13008,Adagio Marseille Prado Perier#145f7c3f0f94,145f7c3f0f94,A,Marseille,Adagio Marseille Prado Perier,True,2003T4,Pierre & Sens,5.3885914,43.2785785,73770,73770,1,Tourism,161 avenue du Prado,Studio,https://dj32ymiemc11o.cloudfront.net/eyJidWNrZXQiOiJvdGFyZWUtcHJvZHVjdGlvbi1maWxlcyIsImtleSI6InVwbG9hZGluZ182NmU0NThhMDMyYjI2IiwiZWRpdHMiOnsicmVzaXplIjp7IndpZHRoIjozODAsImhlaWdodCI6MzAwLCJmaXQiOiJjb3ZlciJ9fX0=?signature=d79a3252da7d8f3437394b52a37012a9576def20f00d1a6994efc6e9a24736ac
13014,JARDIN EMY#86e9f046888f,86e9f046888f,A,Marseille,JARDIN EMY,False,2025T1,Woodeum X Pitch Immo,5.4032352,43.3334629,202210,230001.89,1,,45 AVENUE ANSALDI,T3|T4,https://dj32ymiemc11o.cloudfront.net/eyJidWNrZXQiOiJvdGFyZWUtcHJvZHVjdGlvbi1maWxlcyIsImtleSI6ImY0Nzc3MzRlYjY4YTUwYmFlYzQ2ZDFmNWFiMWE3MDM2Y2U1NWFkMzEiLCJlZGl0cyI6eyJyZXNpemUiOnsid2lkdGgiOjM4MCwiaGVpZ2h0IjozMDAsImZpdCI6ImNvdmVyIn19fQ==?signature=1f36483d0dde4a40b4b154c7a2c094f80e2399142baead43000e0269719cc305
13200,LE JULIA#f4132ee3a588,f4132ee3a588,B1,Arles,LE JULIA,False,2025T4,Oscar Développement,4.625039,43.676185,160000,259116,6,,15 Rue Dulau,Local commercial|T2|T3,
13210,ALBA 1#03f7c64406c4,03f7c64406c4,B1,Saint-Rémy-de-Provence,ALBA 1,False,2025T2,Edouard Denis,4.840441,43.795514,250000,304000,4,,AV THÉODORE AUBANEL,T1|T2|T3,
13100,Aparthotel Adagio Aix Centre ****#83ae4448fe91,83ae4448fe91,A,Aix-en-Provence,Aparthotel Adagio Aix Centre ****,True,1991T4,Revenu Pierre,5.4409281,43.5290648,193600,193600,1,Business,3-5 rue Chartreux ,T1|T2,https://dj32ymiemc11o.cloudfront.net/eyJidWNrZXQiOiJvdGFyZWUtcHJvZHVjdGlvbi1maWxlcyIsImtleSI6ImE0ZGQ1NTYxNWJiNzY0YWRhNDJkZTg1ZDhlN2U3NTgxNjk4MDU4MmMiLCJlZGl0cyI6eyJyZXNpemUiOnsid2lkdGgiOjM4MCwiaGVpZ2h0IjozMDAsImZpdCI6ImNvdmVyIn19fQ==?signature=ee5db4e63ed64ef3de060ea6484fcd6dfaa80386358174ded9691991b3b47752
13004,Longchamp MARSEILLE - 13#fbb7332d74c6,fbb7332d74c6,A,Marseille,Longchamp MARSEILLE - 13,True,,Pierre Loyers Conseil,5.393025,43.3066879,161621.82,161621.82,1,EHPAD,"14, rue Bénédit",T1,https://dj32ymiemc11o.cloudfront.net/eyJidWNrZXQiOiJvdGFyZWUtcHJvZHVjdGlvbi1maWxlcyIsImtleSI6IjgwOTZmNWYzYWE2OGZmNTUxYmQ1MzZlMTZhYTE4OWE2YTI3YWEwN2MiLCJlZGl0cyI6eyJyZXNpemUiOnsid2lkdGgiOjM4MCwiaGVpZ2h0IjozMDAsImZpdCI6ImNvdmVyIn19fQ==?signature=854bfb78685e6c96723650f6264973e1b7d9ba92eb578a57659c2635d4a581e6
13003,Neoresid- Marseille - La Phoceenne#15542c891fbf,15542c891fbf,A,Marseille,Néorésid- Marseille - La Phocéenne,False,,Attentif LMNP,5.3774552,43.3111057,66047,66047,1,Student,73 rue hoche,T1,
13500,LE MAS DE LA COTE BLEUE#0ef6ca22157d,0ef6ca22157d,A,Martigues,LE MAS DE LA COTE BLEUE,True,2010T4,Fidexi,5.0537161,43.332887,225825.69,225825.69,1,EHPAD,Traverse de la Pointe Riche,Chambre simple|T1,
13960,Les Terrasses de Sausset#c6508ca37964,c6508ca37964,A,Sausset-les-Pins,Les Terrasses de Sausset,True,2013T4,Revenu Pierre,5.1022956,43.3397412,185000,187800,2,EHPAD,7 Avenue des Trois Communes ,T1,https://dj32ymiemc11o.cloudfront.net/eyJidWNrZXQiOiJvdGFyZWUtcHJvZHVjdGlvbi1maWxlcyIsImtleSI6ImJjNDNlYjlhZjVlNTVhZWZlZTNkMTM4YmU5MzFmYzJjOWE1NGY1MzMiLCJlZGl0cyI6eyJyZXNpemUiOnsid2lkdGgiOjM4MCwiaGVpZ2h0IjozMDAsImZpdCI6ImNvdmVyIn19fQ==?signature=7e4730248fc44cee5bedf8c1d4cccfecce7a0e23a8242260ae9faa16a7eac2ac
13008,EXCLUSIVE 8E#a9cb74b338e0,a9cb74b338e0,A,Marseille,EXCLUSIVE 8E,False,2025T2,Woodeum X Pitch Immo,5.3885562,43.2631756,229000,1412500,10,,44 AVENUE ALEXANDRE DUMAS,Maison T5|T1|T2|T3|T4,https://dj32ymiemc11o.cloudfront.net/eyJidWNrZXQiOiJvdGFyZWUtcHJvZHVjdGlvbi1maWxlcyIsImtleSI6IjFmZDY0NzNlOGY1NGM1ZDk3MzdmZjU5ZTNiOTFlYTBkOTJiZGJhMDUiLCJlZGl0cyI6eyJyZXNpemUiOnsid2lkdGgiOjM4MCwiaGVpZ2h0IjozMDAsImZpdCI6ImNvdmVyIn19fQ==?signature=354bb5ef81e9ebba5d5fe0e85c2b5263be293e9f1c2ab9c016dca07ff08444dc
13010,La Villa Des Poetes#9dd8a93e6240,9dd8a93e6240,A,Marseille,La Villa Des Poetes,True,2013T4,Revenu Pierre,5.4195649,43.2727278,209400,209400,1,EHPAD,90 Rue Francois Mauriac ,T1,https://dj32ymiemc11o.cloudfront.net/eyJidWNrZXQiOiJvdGFyZWUtcHJvZHVjdGlvbi1maWxlcyIsImtleSI6Ijg3MzMyMTBkNmY2MjMyMTM1NTExNGRkNzNjYjYyYjRkYzVlZmNiMGQiLCJlZGl0cyI6eyJyZXNpemUiOnsid2lkdGgiOjM4MCwiaGVpZ2h0IjozMDAsImZpdCI6ImNvdmVyIn19fQ==?signature=758cde4501cb3b2d16d38b4f0fc233bf3ad8e59d9a516648fc8b3429826b4821
13100,Harmonie#7893e3992ab2,7893e3992ab2,A,Aix-en-Provence,Harmonie,False,2026T2,Kaufman & Broad,5.3599724,43.4892671,253000,636000,31,,Allée Etienne Lambert,T2|T3|T4|T5,https://dj32ymiemc11o.cloudfront.net/eyJidWNrZXQiOiJvdGFyZWUtcHJvZHVjdGlvbi1maWxlcyIsImtleSI6ImQ3ZWU4NDI3ZWE5Mzg0OTNkZjk5MGVlNDVlNDg2Nzc3ZmU0NTkyNWEiLCJlZGl0cyI6eyJyZXNpemUiOnsid2lkdGgiOjM4MCwiaGVpZ2h0IjozMDAsImZpdCI6ImNvdmVyIn19fQ==?signature=64918d76329ad4e42a4668ed961965cc4c7656b829956d686e5a4bf7a4b7fee3
13100,Campagne Giraud - Batiment C#7f159085093a,7f159085093a,A,Aix-en-Provence,Campagne Giraud - Bâtiment C,False,2025T1,CIFP,5.4418667,43.5385547,1103460,1103460,1,,Allée Jérôme Lejeune,T4,https://dj32ymiemc11o.cloudfront.net/eyJidWNrZXQiOiJvdGFyZWUtcHJvZHVjdGlvbi1maWxlcyIsImtleSI6ImIwM2JlZjYyNTI3ZTViMGIwYmE2NTQzZDNjZTcxOWYyNmI5YzU5MzMiLCJlZGl0cyI6eyJyZXNpemUiOnsid2lkdGgiOjM4MCwiaGVpZ2h0IjozMDAsImZpdCI6ImNvdmVyIn19fQ==?signature=43c6b08ae8162955fa45243e5db78818381cad8f823c69fac6ebd69ffc3bdc62
13010,LA VILLA DES POETES - Marche secondaire#a7a703167ed4,a7a703167ed4,A,Marseille,LA VILLA DES POETES - Marché secondaire,True,2013T3,Fidexi,5.420689,43.272721,223226.16,223226.16,1,,90 Rue François mauriace,T1,https://dj32ymiemc11o.cloudfront.net/eyJidWNrZXQiOiJvdGFyZWUtcHJvZHVjdGlvbi1maWxlcyIsImtleSI6IjljNjQ2NDMyYWQ0MTE1OTgwMjkzMjNjMmIzMDZlYjJiM2Q1MzI2MDYiLCJlZGl0cyI6eyJyZXNpemUiOnsid2lkdGgiOjM4MCwiaGVpZ2h0IjozMDAsImZpdCI6ImNvdmVyIn19fQ==?signature=0ba6fbd852ed3d99c031a28e80e31b9d536ff9c59963df5f50b7406b02208fb8
13006,Appartement T2 - 40 m2 - Marseille#f47324247034,f47324247034,A,Marseille,Appartement T2 - 40 m2 - Marseille,True,2024T2,Masteos,5.3774057,43.2889148,197000,197000,1,,Rue Sylvabelle,T2,https://dj32ymiemc11o.cloudfront.net/eyJidWNrZXQiOiJvdGFyZWUtcHJvZHVjdGlvbi1maWxlcyIsImtleSI6ImUxZDI4NGJjNjcwMDUxMDNlMTViYmQzOWFkYmUxYzA2NGE1MjhmYTciLCJlZGl0cyI6eyJyZXNpemUiOnsid2lkdGgiOjM4MCwiaGVpZ2h0IjozMDAsImZpdCI6ImNvdmVyIn19fQ==?signature=c570de96a52bbf830fb0ebe44bb1f6176cc70797738b9214db9350a8382820c4
13013,Les Jonquilles MARSEILLE 13eme - 13#aacda061a621,aacda061a621,A,Marseille,Les Jonquilles MARSEILLE 13ème - 13,True,,Pierre Loyers Conseil,5.4363107,43.3248268,142470,142470,1,EHPAD,"130, chemin des Jonquilles",T1,https://dj32ymiemc11o.cloudfront.net/eyJidWNrZXQiOiJvdGFyZWUtcHJvZHVjdGlvbi1maWxlcyIsImtleSI6IjUyMjA2NGM3YWM2MjQyZjI0MTYxOTZlMWJmN2YwYTk2Zjk3MDRjYWYiLCJlZGl0cyI6eyJyZXNpemUiOnsid2lkdGgiOjM4MCwiaGVpZ2h0IjozMDAsImZpdCI6ImNvdmVyIn19fQ==?signature=6406e00b912d85524d7cbf0076b5336ee80c8982b40e3170f4359c068f1a7a03
13100,30 Rue Boulegon#cdbb5e31094d,cdbb5e31094d,A,Aix-en-Provence,30 Rue Boulegon,False,2025T3,MCI Invest,5.449871,43.5311406,,,0,,"30 Rue Boulegon, 13100 Aix-en-Provence, France",LC|T2|T3 D,
13002,Appartement T2 - 44.5 m2 - Marseille#15804967c203,15804967c203,A,Marseille,Appartement T2 - 44.5 m2 - Marseille,True,2024T2,Masteos,5.3685289,43.2981208,195300,195300,1,,Rue du Poirier,T2,https://dj32ymiemc11o.cloudfront.net/eyJidWNrZXQiOiJvdGFyZWUtcHJvZHVjdGlvbi1maWxlcyIsImtleSI6ImU1ZmRlN2UxN2E1NTczNTA1MzIxZThkMzM1MDRlZDkwYmE5NzljOGEiLCJlZGl0cyI6eyJyZXNpemUiOnsid2lkdGgiOjM4MCwiaGVpZ2h0IjozMDAsImZpdCI6ImNvdmVyIn19fQ==?signature=850b5fda486805770eb64eaa0a6b271dd4cd59dc3b302750f830df8a88850d14
13006,4 RUE DES TROIS ROIS (MARSEILLE)#050dd41c83e7,050dd41c83e7,A,Marseille,4 RUE DES TROIS ROIS (MARSEILLE),False,2026T3,Valority Partners,5.3842769,43.2945844,173000,395000,12,,"4, rue des 3 Rois ",T1|T1 Bis|T2|T3,
13100,Domaine Saint Marc#6ce6cc31fa2b,6ce6cc31fa2b,A,Aix-en-Provence,Domaine Saint Marc,False,2025T1,Nacarat,5.4678668,43.5346972,356000,925000,17,,154 av Jean et Marcel de Fontenaille,T2|T3|T4|T5,https://dj32ymiemc11o.cloudfront.net/eyJidWNrZXQiOiJvdGFyZWUtcHJvZHVjdGlvbi1maWxlcyIsImtleSI6ImQ3MWM3YzJiYzVmMjBhMWU0NWQzZWNmNGZjNDdmZDk3M2JmNjAyMTciLCJlZGl0cyI6eyJyZXNpemUiOnsid2lkdGgiOjM4MCwiaGVpZ2h0IjozMDAsImZpdCI6ImNvdmVyIn19fQ==?signature=201de5a26bbb5c5b7f164b4366a230cc7c45c384fe45cda0f69bbe36935000b4
13100,Le Clos de la Chartreuse***#c6f3da376c85,c6f3da376c85,A,Aix-en-Provence,Le Clos de la Chartreuse***,True,2002T4,Revenu Pierre,5.4262519,43.5292213,97300,162700,4,Tourism,42 Rte de Galice ,T1|T2,https://dj32ymiemc11o.cloudfront.net/eyJidWNrZXQiOiJvdGFyZWUtcHJvZHVjdGlvbi1maWxlcyIsImtleSI6IjkxYzQ1MGUwN2E3N2VhM2I2OWJmZDZiMTc5NzI4ZTQxNzZkYzg1ODQiLCJlZGl0cyI6eyJyZXNpemUiOnsid2lkdGgiOjM4MCwiaGVpZ2h0IjozMDAsImZpdCI6ImNvdmVyIn19fQ==?signature=c2a92b66a07dc2960ea6366ac55dcca840f3e27f0d4934546bd26824b509c220
13001,Appartement T4 - 74 m2 - Marseille#4dca776f1aac,4dca776f1aac,A,Marseille,Appartement T4 - 74 m2 - Marseille,True,2024T2,Masteos,5.3922462,43.3061313,251480,251480,1,,Rue Guy Fabre,T4,https://dj32ymiemc11o.cloudfront.net/eyJidWNrZXQiOiJvdGFyZWUtcHJvZHVjdGlvbi1maWxlcyIsImtleSI6ImE3MGRmYTFiOTk1ZGUzNThmY2NhZjg0M2NjYmY5OTM0ZjBlNjhmMmMiLCJlZGl0cyI6eyJyZXNpemUiOnsid2lkdGgiOjM4MCwiaGVpZ2h0IjozMDAsImZpdCI6ImNvdmVyIn19fQ==?signature=0a438c8dfb4f1b7982c3958d3a896446cea98551b08b3ea2eea0babfce8fd5eb
13117,Le Domaine de Manon#2b848c25bbaa,2b848c25bbaa,A,Martigues,Le Domaine de Manon,False,2025T2,Kaufman & Broad,5.035993,43.42082,298000,512000,6,,Chemin Jean Lurçat / D50c Bd des Rayettes,T2|T3|T4|T5,https://dj32ymiemc11o.cloudfront.net/eyJidWNrZXQiOiJvdGFyZWUtcHJvZHVjdGlvbi1maWxlcyIsImtleSI6IjMzMDU3NWY5NzEzZWVmMWE3YWE2MzlhYTNjNTFmOTE3ODI4YTgyZGEiLCJlZGl0cyI6eyJyZXNpemUiOnsid2lkdGgiOjM4MCwiaGVpZ2h0IjozMDAsImZpdCI6ImNvdmVyIn19fQ==?signature=5c7b5c361c5017b28de8e950d0165b63cad9e94d5bde0ff42a3a97c71504270f
13120,VILLA CEZANNE#6bd34c338e68,6bd34c338e68,A,Gardanne,VILLA CÉZANNE,False,2025T2,Les Nouveaux Constructeurs,5.4841508,43.4577588,452400,452400,1,,365 AVENUE PIERRE BROSSOLETTE,T2|T3|T4,https://dj32ymiemc11o.cloudfront.net/eyJidWNrZXQiOiJvdGFyZWUtcHJvZHVjdGlvbi1maWxlcyIsImtleSI6IjQxYjA0NGJhNWIwNzY2N2ZiMzA1MmRiODMzNGIxMTIzMmIzMmY0YjYiLCJlZGl0cyI6eyJyZXNpemUiOnsid2lkdGgiOjM4MCwiaGVpZ2h0IjozMDAsImZpdCI6ImNvdmVyIn19fQ==?signature=7d20d1832e3f9c74115d77a53efa4f07045ff24abcd5b32ee4bf23bf65d9f5ec
13127,LES BOISERIES DU PARC#6da428955387,6da428955387,A,Vitrolles,LES BOISERIES DU PARC,False,2027T2,Les Nouveaux Constructeurs,5.2880062,43.4231053,240300,421300,19,,3 Rue des Rastoubles,T2|T3|T4,https://dj32ymiemc11o.cloudfront.net/eyJidWNrZXQiOiJvdGFyZWUtcHJvZHVjdGlvbi1maWxlcyIsImtleSI6ImEwMWIzNzU3MGI3MzM0NzA3ODg4OGJjMTkwMTE4Y2Q5MjAxNzlmNDAiLCJlZGl0cyI6eyJyZXNpemUiOnsid2lkdGgiOjM4MCwiaGVpZ2h0IjozMDAsImZpdCI6ImNvdmVyIn19fQ==?signature=f7da644fe47231c8bf4b88a3cc0ee57bf8937c06dcb49531a16766dd904821a7
13010,SECONDE NATURE#c6d303438ebe,c6d303438ebe,A,Marseille,SECONDE NATURE,False,2025T3,Ogic,5.4153253,43.2704105,283564.66,582255,18,,"16, avenue Gaston Berger",T1|T2|T3|T4|T5,https://dj32ymiemc11o.cloudfront.net/eyJidWNrZXQiOiJvdGFyZWUtcHJvZHVjdGlvbi1maWxlcyIsImtleSI6ImEwZjY4OWIyZjdlNTIyZmEyM2JmMWQ4MDA3N2ZhMmFhYjU5NTZmYWQiLCJlZGl0cyI6eyJyZXNpemUiOnsid2lkdGgiOjM4MCwiaGVpZ2h0IjozMDAsImZpdCI6ImNvdmVyIn19fQ==?signature=39fd67c0445ad54f827a0565eb65a64e9092a6d6986a1a6eb82c0460c9274afe
13127,PARENTHESE#aa7139469572,aa7139469572,A,Vitrolles,PARENTHESE,False,2025T4,Quartus,5.2579968,43.4496688,194000,308000,11,,Avenue Fontsegugne,T1|T2|T3|T4,
13800,Les Jardins d'Arcadie#c277864e7c68,c277864e7c68,A,Istres,Les Jardins d'Arcadie,False,,iSelection,4.9862916,43.5125032,204167,265000,10,,6 rue Joseph Tournon,T1|T2|T3,
13006,Appartement Studio - 23.87 m2 - Marseille#a676b8584d84,a676b8584d84,A,Marseille,Appartement Studio - 23.87 m2 - Marseille,True,2024T2,Masteos,5.391112,43.285751,147500,147500,1,,Traverse Raynouard,Studio,https://dj32ymiemc11o.cloudfront.net/eyJidWNrZXQiOiJvdGFyZWUtcHJvZHVjdGlvbi1maWxlcyIsImtleSI6ImYxY2FkNzhkYTQxYTc1YjRiMmNkZjVkNDFmMTgzNjhkN2E3MWQxNjYiLCJlZGl0cyI6eyJyZXNpemUiOnsid2lkdGgiOjM4MCwiaGVpZ2h0IjozMDAsImZpdCI6ImNvdmVyIn19fQ==?signature=fda1eaa269038536618966c69bbb972acf75cd0b39184f4dc588fd546ee7ebc6
13010,Nexity Studea - Marseille - Studea Capelette#d7bb12aa737c,d7bb12aa737c,A,Marseille,Nexity Studéa - Marseille - Studéa Capelette,False,,Attentif LMNP,5.4160255,43.2796546,65131,68870,2,Student,340 avenue de la capelette,T1,
13012,RESIDENCE LOUISE#b02fccb1e4d2,b02fccb1e4d2,A,Marseille,RÉSIDENCE LOUISE,False,2026T4,NOVANEA,5.4227453,43.3092295,249999.996,1239999.996,23,, Impasse du Muguet,T1|T2|T3|T4|T5,
13010,Residence etudiante Studea Marseille Capelette#94b06e538ac8,94b06e538ac8,A,Marseille,Résidence étudiante Studéa Marseille Capelette,True,,iSelection,5.4161667,43.2796761,76200,80800,3,Student,"340 Avenue de la Capelette, 13010 Marseille",Studio|T1|T1 Bis,
13960,HORIZON BLEU#bfc4c770a34d,bfc4c770a34d,A,Sausset-les-Pins,HORIZON BLEU,False,,iSelection,5.1103582,43.3326699,195000,390000,9,,5 esplanade de la Gare,T2|T3|T4,
13200,LES RIVES DU JONQUET#fbd1b4c69474,fbd1b4c69474,B1,Arles,LES RIVES DU JONQUET,False,2026T3,Pichet (Investissement),4.6435667,43.6790735,171000,186000,29,,CHEMIN DES JONQUETS,T2,https://dj32ymiemc11o.cloudfront.net/eyJidWNrZXQiOiJvdGFyZWUtcHJvZHVjdGlvbi1maWxlcyIsImtleSI6ImQwOTA4MmYxNGEyM2I4ZWYyNWI0ZjRiZjY5MGY2YmE5ZGNhNGVjYjAiLCJlZGl0cyI6eyJyZXNpemUiOnsid2lkdGgiOjM4MCwiaGVpZ2h0IjozMDAsImZpdCI6ImNvdmVyIn19fQ==?signature=9aabb556458ce91aa4d4fa11d557ce1f6bfa9801213312fe6934130f512b4915
13200,Les Gardians#4e657658ce96,4e657658ce96,B1,Arles,Les Gardians,True,2017T1,CELAVi pierre,4.6372929,43.6664264,96256,96256,1,Tourism,Quartier Fourchon,T3 Duplex,https://dj32ymiemc11o.cloudfront.net/eyJidWNrZXQiOiJvdGFyZWUtcHJvZHVjdGlvbi1maWxlcyIsImtleSI6ImIxZWRjMzYzOWQyZjQ0NTkzZjBiYjQxNTMzZTgxMmNjZDY3OTdjYTMiLCJlZGl0cyI6eyJyZXNpemUiOnsid2lkdGgiOjM4MCwiaGVpZ2h0IjozMDAsImZpdCI6ImNvdmVyIn19fQ==?signature=f42f1d0572a40f48e86a61f1665fa5e4de5acf6a04155f0adaad8ed91684abc3
13100,Horizon Solari#8de41b7599fe,8de41b7599fe,A,Aix-en-Provence,Horizon Solari,False,2025T4,Sagec,5.4401544,43.5433225,340000,855000,7,,45 Avenue Philippe Solari,T1|T2|T3|T4|T5,https://dj32ymiemc11o.cloudfront.net/eyJidWNrZXQiOiJvdGFyZWUtcHJvZHVjdGlvbi1maWxlcyIsImtleSI6ImZlM2RmZWNhNzNmYzQ3OTQ0ZjE5NjQ0YTRkOGQ0OTExODU4NzNiZmIiLCJlZGl0cyI6eyJyZXNpemUiOnsid2lkdGgiOjM4MCwiaGVpZ2h0IjozMDAsImZpdCI6ImNvdmVyIn19fQ==?signature=88f86c233b2c64ce8bef0877ed5fb581f0073bea16614ee1a2b1056cc99ff979
13005,Studea Marseille Ferrari#18738c705c3f,18738c705c3f,A,Marseille,Studéa Marseille Ferrari,True,2012T3,Consultim,5.390038,43.2934871,87645.76,87645.76,1,Student,60-62 RUE FERRARI,Studio,https://dj32ymiemc11o.cloudfront.net/eyJidWNrZXQiOiJvdGFyZWUtcHJvZHVjdGlvbi1maWxlcyIsImtleSI6Ijk4OTdlNGFjMjJjYWE5ODRkY2IzZThhYjcxZGE1MmExNmM2YTk0ZjYiLCJlZGl0cyI6eyJyZXNpemUiOnsid2lkdGgiOjM4MCwiaGVpZ2h0IjozMDAsImZpdCI6ImNvdmVyIn19fQ==?signature=1dab22da67a51e489e5a0e562899de81eecd9946fafcd631aca9cdfdaecf34f4
13015,CAP M' EUROMED 2#3097ebd4669e,3097ebd4669e,A,Marseille,CAP M' EUROMED 2,False,2026T4,Nexity,5.3667208,43.319582,254000,288909.94,2,,8 CHE M. DE LA MADRAGUE-VIL,T2|T3,
13310,Effet Nature#afca5b1a7e3b,afca5b1a7e3b,B1,Saint-Martin-de-Crau,Effet Nature,False,2026T2,Cogedim,4.7950163,43.6389504,179000,253000,20,,AVENUE DE LA MEDITERRANEE,T2|T3,
13090,Aix Campus 2#f213e5a0c2c9,f213e5a0c2c9,A,Aix-en-Provence,Aix Campus 2,True,2017T4,Revenu Pierre,5.4357916,43.5134995,99000,99000,1,Student,30 rue Magdeleine Hutin ,T1,https://dj32ymiemc11o.cloudfront.net/eyJidWNrZXQiOiJvdGFyZWUtcHJvZHVjdGlvbi1maWxlcyIsImtleSI6IjA0YmY3MjhmZTU2YmU3YjBiZjRlYTcxOGFjNzgyZjhlNTg1MzhkOTgiLCJlZGl0cyI6eyJyZXNpemUiOnsid2lkdGgiOjM4MCwiaGVpZ2h0IjozMDAsImZpdCI6ImNvdmVyIn19fQ==?signature=7f4e0eb06e5e79f42870e8d21a4f8996eb382771bf9074d91eaf280a33ad7828
13300,Les Bastides de Titin#39786fcd3fa6,39786fcd3fa6,B1,Salon-de-Provence,Les Bastides de Titin,True,2024T1,Groupe Gambetta,5.1228506,43.6300613,265000,265000,1,,Impasse des Ligures,T3|T4,https://dj32ymiemc11o.cloudfront.net/eyJidWNrZXQiOiJvdGFyZWUtcHJvZHVjdGlvbi1maWxlcyIsImtleSI6ImUxNzM2NjNjOThiYzVjYmVjYzE0OGZhNjYzZjI0N2M0OTQ1MTIxNjMiLCJlZGl0cyI6eyJyZXNpemUiOnsid2lkdGgiOjM4MCwiaGVpZ2h0IjozMDAsImZpdCI6ImNvdmVyIn19fQ==?signature=a565a4fefad3a957e40a85d675b315f5a33878b61fe1f555803ffa3e1730927c
13110,VILLA MARINA#9747630cd43f,9747630cd43f,A,Port-de-Bouc,VILLA MARINA,False,2025T3,Les Nouveaux Constructeurs,4.981744,43.40195,180053,217000,2,,RUE DE LA RÉPUBLIQUE,T1|T2|T3|T4,https://dj32ymiemc11o.cloudfront.net/eyJidWNrZXQiOiJvdGFyZWUtcHJvZHVjdGlvbi1maWxlcyIsImtleSI6IjRlYTk2ZWRiYTYyODQ4MzU3MTYwNzkxMjhjZGIzNDM4YWM3NGJiM2MiLCJlZGl0cyI6eyJyZXNpemUiOnsid2lkdGgiOjM4MCwiaGVpZ2h0IjozMDAsImZpdCI6ImNvdmVyIn19fQ==?signature=ca7d82f37084e24550f107f2b1d5361701f79a598be117705af41df3bfa7506d
13003,Nexity Studea - Marseille - Croix d'Azur#319cf6e0d508,319cf6e0d508,A,Marseille,Nexity Studéa - Marseille - Croix d'Azur,False,,Attentif LMNP,5.3734488,43.3055723,63829,65075,2,Student,60 au 72 avenue Camille Pelletan,Studio|T1,
