zip_code,name_id,id,taxArea,city,estate_name,delivered,deliveryQuarter,developer_name,longitude,latitude,availablePropertiesMinPrice,availablePropertiesMaxPrice,availablePropertiesCount,residenceType,address,typologies,image
77160,Le Vitis#2faacebef819,2faacebef819,B1,Provins,Le Vitis,False,2026T2,Inovefa,3.303237,48.5550556,167000,234000,5,,7-9-11 route de Champbenoist,T2|T3|T4,
77120,RESIDENCE BUKOLIA 8#a0cfae378daf,a0cfae378daf,B1,Coulommiers,RESIDENCE BUKOLIA 8,True,2023T4,Edouard Denis,3.0752746,48.818675,289000,289000,1,,70 RUE DES GRANDS MAISONS,T4,
77310,Green Central#b2a2b517390b,b2a2b517390b,A,Saint-Fargeau-Ponthierry,Green Central,False,2026T3,Kaufman & Broad,2.5418065,48.528988,199000,362000,23,,15 Rue DU STADE,T2|T3|T4,https://dj32ymiemc11o.cloudfront.net/eyJidWNrZXQiOiJvdGFyZWUtcHJvZHVjdGlvbi1maWxlcyIsImtleSI6IjhmNDU5ZWQ5MGYyYjQxNTEzNTFiODllMDk0NWZmYTlmNjQxYWE2MmIiLCJlZGl0cyI6eyJyZXNpemUiOnsid2lkdGgiOjM4MCwiaGVpZ2h0IjozMDAsImZpdCI6ImNvdmVyIn19fQ==?signature=a6ecfb356fa77bf3c5f6bcf164b5262089c436dd9cd425bccb4ab9a062ead9d9
77000,COUVENT DES RECOLLETS PHASE 2#bb194ffc964d,bb194ffc964d,A,Melun,COUVENT DES RECOLLETS PHASE 2,False,2025T1,Histoire & Patrimoine,2.6676929,48.5388776,528384,528384,1,,2 RUE FRETEAU DE PENY,T1|T2|T2 Duplex|T2/T3|T3|T4,https://dj32ymiemc11o.cloudfront.net/eyJidWNrZXQiOiJvdGFyZWUtcHJvZHVjdGlvbi1maWxlcyIsImtleSI6ImY0MWU4Y2VkMTVhNWEzMTEyZmIzNjBlMmQ1OGMwMzM4OThkNjViZDgiLCJlZGl0cyI6eyJyZXNpemUiOnsid2lkdGgiOjM4MCwiaGVpZ2h0IjozMDAsImZpdCI6ImNvdmVyIn19fQ==?signature=8990c25e517ae0bffb465b1f03f8500c80ab8c7cea85bec4b1d3da98df1ac03d
77000,GINKGO 4#078bd07ed12c,078bd07ed12c,A,Melun,GINKGO 4,False,2025T1,Nexity,2.6578917,48.5548971,253000,287772.5,1,,RUE PAUL EMILE VICTOR,T2|T3|T4,
77450,VILLAS D'ISLES#4aea9cc0ba1b,4aea9cc0ba1b,A,Isles-lès-Villenoy,VILLAS D'ISLES,False,2026T4,Les Nouveaux Constructeurs,2.8323048,48.9204063,367100,428500,42,,RUE DE MEAUX,T4,https://dj32ymiemc11o.cloudfront.net/eyJidWNrZXQiOiJvdGFyZWUtcHJvZHVjdGlvbi1maWxlcyIsImtleSI6IjM3YTkyMjI5NzA1ZDA3MDg2NWU0YzQwZWIwMGQzYzRmM2E1NTc4ODIiLCJlZGl0cyI6eyJyZXNpemUiOnsid2lkdGgiOjM4MCwiaGVpZ2h0IjozMDAsImZpdCI6ImNvdmVyIn19fQ==?signature=5b05ac4ea69b48a33a9d1d689c67ec9e879920f9a5e003f3a80112984c5e178f
77600,Bucolia#54581a416439,54581a416439,A,Bussy-Saint-Georges,Bucolia,True,2024T3,Immobel,2.709621,48.845331,699000,699000,2,,15 avenue du Golf,MC5|MI5|T1|T2|T3|T4|T5,https://dj32ymiemc11o.cloudfront.net/eyJidWNrZXQiOiJvdGFyZWUtcHJvZHVjdGlvbi1maWxlcyIsImtleSI6IjI0OTdlMGY0MjhmYTBhOGYyNWRmYTQ2MmU3MmYzOTk5OGNhZDJhNjEiLCJlZGl0cyI6eyJyZXNpemUiOnsid2lkdGgiOjM4MCwiaGVpZ2h0IjozMDAsImZpdCI6ImNvdmVyIn19fQ==?signature=0e014c8fdfd0347bf319f263a6ae2e120d1178943f41261d85a3197b28012949
77167,LE COURS SAINT LAURENT #47fb4a6221c8,47fb4a6221c8,B1,Bagneaux-sur-Loing,LE COURS SAINT LAURENT ,False,2025T1,Général Foy Investissement - Nexity,2.708041480465,48.228780009267,178500,229900,4,,Route de Pierre le Sault,T2|T3,
77700,Les Demeures du Val#01ad7daf5880,01ad7daf5880,A,Coupvray,Les Demeures du Val,False,2025T3,MDH Promotion,2.7939115,48.8916245,240000,367450.24,19,,ZAC de Coupvray Quartier des Bonshommes  Rue des Frères Lumière,T1|T2|T3|T4|T5,
77100,APPARTEMENT - 42m2 - MEAUX#cc7e0c4a6dbb,cc7e0c4a6dbb,A,Meaux,APPARTEMENT - 42m² - MEAUX,False,,Smart Investissement,2.8944882,48.9579221,203814.28,203814.28,1,,1 bis Avenue du Maréchal Joffre,T1 Chambre,https://dj32ymiemc11o.cloudfront.net/eyJidWNrZXQiOiJvdGFyZWUtcHJvZHVjdGlvbi1maWxlcyIsImtleSI6IjI2YzMzOTQwZTQ0MTRmMmYzMmI0MDNlM2FmYWIxOWMwOWRlYWJjZWQiLCJlZGl0cyI6eyJyZXNpemUiOnsid2lkdGgiOjM4MCwiaGVpZ2h0IjozMDAsImZpdCI6ImNvdmVyIn19fQ==?signature=fc575a63a98cce8a8203dd449c5eaaebfd1b41d8c1bd6220368324f034b63829
77176,Le Domaine du Bourg - Maisons#b8ff9d1a26f2,b8ff9d1a26f2,A,Savigny-le-Temple,Le Domaine du Bourg - Maisons,True,2024T3,Kaufman & Broad,2.581021,48.577951,389000,389000,1,,Rue des Ormes,T2|T3|T4,https://dj32ymiemc11o.cloudfront.net/eyJidWNrZXQiOiJvdGFyZWUtcHJvZHVjdGlvbi1maWxlcyIsImtleSI6IjM4NjQwZWRjNmU3ZWJhYjdmZmQwNmE5ZGQyZTFmZjBhNTA3MDA5MGUiLCJlZGl0cyI6eyJyZXNpemUiOnsid2lkdGgiOjM4MCwiaGVpZ2h0IjozMDAsImZpdCI6ImNvdmVyIn19fQ==?signature=9179f59b2775f2be2956e4ddafbbe73a28d44eb1016ceda23a515f0a40545bf4
77130,VILLA COLBERT#89cbff7dab2f,89cbff7dab2f,B1,Montereau-Fault-Yonne,VILLA COLBERT,False,2025T4,Green City,2.9439526,48.3805351,214900,217900,3,,1-7-9 rue du Châtelet,Local commercial|T1|T1 Bis|T2|T3 Duplex|T4 Duplex,
77100,49E AVENUE#ae754a1dfd31,ae754a1dfd31,A,Meaux,49E AVENUE,False,2025T3,Pichet (Investissement),2.8892349,48.9532812,243500,293500,6,,AVE DU MARECHAL FOCH,T1|T2|T3,https://dj32ymiemc11o.cloudfront.net/eyJidWNrZXQiOiJvdGFyZWUtcHJvZHVjdGlvbi1maWxlcyIsImtleSI6IjcxM2RlYjc0NDQxZmJmZGY3OTcwNGM1NWNlM2E3NmNkYzM5NzU0N2IiLCJlZGl0cyI6eyJyZXNpemUiOnsid2lkdGgiOjM4MCwiaGVpZ2h0IjozMDAsImZpdCI6ImNvdmVyIn19fQ==?signature=2019c49b96163552f17100d79f38599a4aade3a50db0cbd9ff4f39ed8f21a728
77190,Embleme#067ede90bc4b,067ede90bc4b,A,Dammarie-les-Lys,Emblème,False,2025T3,Inovefa,2.6487257,48.5274641,276000,413000,9,,334 avenue Jean Jaurès,T3|T4|T5,
77600,SYMPHONIE#72553de45e2c,72553de45e2c,A,Bussy-Saint-Georges,SYMPHONIE,False,2027T4,Catella,2.737311,48.835076,193333.33,366666.67,37,,49 avenue de l’Europe 77600 Bussy st Georges,T2|T3|T4|T5,https://dj32ymiemc11o.cloudfront.net/eyJidWNrZXQiOiJvdGFyZWUtcHJvZHVjdGlvbi1maWxlcyIsImtleSI6ImExMjViNWY2ZDk3YjJhZjhkMWExMTZjZDcxMjI4ZjFkNGFlYmMzM2IiLCJlZGl0cyI6eyJyZXNpemUiOnsid2lkdGgiOjM4MCwiaGVpZ2h0IjozMDAsImZpdCI6ImNvdmVyIn19fQ==?signature=30142aa5af6481ac7807546d6b8597c04676047ec9404ff91600f4eaf94ab98d
77400,LE DOMAINE DE CHABANNEAUX 6#cdbc8fe19c46,cdbc8fe19c46,A,Pomponne,LE DOMAINE DE CHABANNEAUX 6,False,2025T2,Edouard Denis,2.7026654,48.8822739,190000,362000,10,,1 RUE DE LA GARE,T1|T2|T3,
77120,TERRASSES DE VAUX 3#0a1458177afb,0a1458177afb,B1,Coulommiers,TERRASSES DE VAUX 3,False,2025T1,Edouard Denis,3.0773513,48.8059253,230000,230000,2,,PL. DE L'ILE DE FRANCE,T1|T2|T3|T4,
77176,Le Domaine du Bourg - Appartements#80b78f6c92d5,80b78f6c92d5,A,Savigny-le-Temple,Le Domaine du Bourg - Appartements,False,2024T4,Kaufman & Broad,2.581021,48.577951,269000,285000,3,,Rue des Ormes,T2|T3|T4,https://dj32ymiemc11o.cloudfront.net/eyJidWNrZXQiOiJvdGFyZWUtcHJvZHVjdGlvbi1maWxlcyIsImtleSI6IjI5ODQ2OWVmMTY4NzU2OWM1OTQ2YjcyZWVjMzRkNWQ2OTVmMTFhYmQiLCJlZGl0cyI6eyJyZXNpemUiOnsid2lkdGgiOjM4MCwiaGVpZ2h0IjozMDAsImZpdCI6ImNvdmVyIn19fQ==?signature=2686ae54d7e092a8af9288d9bbdb9f3200c8a00429c318005f0109fb89ce54bf
77177,COEUR CHANTEREINE#46cfc3c9f29d,46cfc3c9f29d,A,Brou-sur-Chantereine,COEUR CHANTEREINE,False,2026T1,Les Nouveaux Constructeurs,2.6258489,48.8814811,265200,409200,8,,21 RUE DU DOCTEUR SCHWEITZER,T2|T3|T4|T5,https://dj32ymiemc11o.cloudfront.net/eyJidWNrZXQiOiJvdGFyZWUtcHJvZHVjdGlvbi1maWxlcyIsImtleSI6Ijc0NmVlYzUwMTlkZDZhZmI4NGZmZjAyMDQ4ZWZjNjYxZWUwZDAzNzYiLCJlZGl0cyI6eyJyZXNpemUiOnsid2lkdGgiOjM4MCwiaGVpZ2h0IjozMDAsImZpdCI6ImNvdmVyIn19fQ==?signature=34aca806771ed95cf4237ab3c4ef6c44fbfc2eb2166e2a5195f7d3772f348e17
77100,APPARTEMENT - 42m2 - MEAUX#1c52125b0359,1c52125b0359,A,Meaux,APPARTEMENT - 42m² - MEAUX,False,,Smart Investissement,2.8944882,48.9579221,203814.28,203814.28,1,,1 bis Avenue du Maréchal Joffre,T1 Chambre,https://dj32ymiemc11o.cloudfront.net/eyJidWNrZXQiOiJvdGFyZWUtcHJvZHVjdGlvbi1maWxlcyIsImtleSI6IjFkZTFiZjlkYTcwMWYyODFkYzk2M2U5ZTIyZTEwMzZkYTJkNTY2OWIiLCJlZGl0cyI6eyJyZXNpemUiOnsid2lkdGgiOjM4MCwiaGVpZ2h0IjozMDAsImZpdCI6ImNvdmVyIn19fQ==?signature=8b41a6417b839663242c32025e706edc7ad6175ec451d5da8e55b6c8d7bc1aac
77144,Reside Etudes - Val d'Europe#7069ce88baa5,7069ce88baa5,A,Montévrain,Réside Etudes - Val d'Europe,False,,Plusimmo - Plusinvest,2.770953,48.854852,95023.2,95023.2,1,,3 Place Jean Monnet,Studio,
77200,REFLET MARNE#474785d06ad3,474785d06ad3,A,Torcy,REFLET MARNE,False,2026T3,Saint Agne,2.6551065,48.8582222,229900,412500,15,,ZAC des Coteaux de la Marne,T1|T2|T3|T4,
77300,ATHENAIS#a1a5bbc1061d,a1a5bbc1061d,A,Fontainebleau,ATHENAIS,False,2025T1,Valority Partners,2.6981985,48.4119663,418984,691858,4,,56 Boulevard Maréchal Joffre / 5 rue du Docteur Matry,T2|T3|T5,
77127,Qadence#be2fd62d6796,be2fd62d6796,A,Lieusaint,Qadence,False,2026T4,Quartus,2.5609478,48.6327417,210000,386000,21,,62 Rue Olympe de Gouges,T2|T3|T4|T5,
77400,LES JARDINS DE LA MARNE #72839865eaed,72839865eaed,A,Lagny-sur-Marne,LES JARDINS DE LA MARNE ,False,2027T2,PRIMAVEFA,2.721266264587,48.880744343495,242760,499000,19,,Rue du Chariot d'Or,T2|T3|T4|T5,https://dj32ymiemc11o.cloudfront.net/eyJidWNrZXQiOiJvdGFyZWUtcHJvZHVjdGlvbi1maWxlcyIsImtleSI6InVwbG9hZGluZ182Njc5OWEzNDEzYzNjIiwiZWRpdHMiOnsicmVzaXplIjp7IndpZHRoIjozODAsImhlaWdodCI6MzAwLCJmaXQiOiJjb3ZlciJ9fX0=?signature=14c66ec7413bb6bdf45f591a9c894b0c89e257fb54e9868668f51a2e72c11dd5
77300,Studio 8#5de1e1e314bf,5de1e1e314bf,A,Fontainebleau,Studio 8,True,2023T4,Revenu Pierre,2.7016664,48.4123544,122200,122200,1,Student,4 rue Lagorsse ,T1,https://dj32ymiemc11o.cloudfront.net/eyJidWNrZXQiOiJvdGFyZWUtcHJvZHVjdGlvbi1maWxlcyIsImtleSI6ImY1MzhmNWQ2YjczODVhNTAxOTZiMTg5MWY0N2Q5ZTQ1MGUwYWI4N2YiLCJlZGl0cyI6eyJyZXNpemUiOnsid2lkdGgiOjM4MCwiaGVpZ2h0IjozMDAsImZpdCI6ImNvdmVyIn19fQ==?signature=2d20c25fcfe2521edc313ba197bc34e0244b6ee560e9f60e5a3502c11c96e1f2
77100,VERT'UOZ#f536bf9f04de,f536bf9f04de,A,Meaux,VERT'UOZ,False,2025T4,Vinci Immobilier,2.9150817,48.9522762,175000,175000,1,,Rue Louis BLERIOT,T1|T2|T3|T4|T5,https://dj32ymiemc11o.cloudfront.net/eyJidWNrZXQiOiJvdGFyZWUtcHJvZHVjdGlvbi1maWxlcyIsImtleSI6IjYzOTAzMGYwNjk3ZmZkNWQyNWYwYjA1ZWUyMjYyN2VmYzhhNDQwNTgiLCJlZGl0cyI6eyJyZXNpemUiOnsid2lkdGgiOjM4MCwiaGVpZ2h0IjozMDAsImZpdCI6ImNvdmVyIn19fQ==?signature=da87a8ebda81d83468f2af37cbe8e385b46c0bb0697dd8e6b365b2aa0a299314
77550,VILLAS DU FRENE#53437b861de4,53437b861de4,B1,Réau,VILLAS DU FRÊNE,False,2026T4,Les Nouveaux Constructeurs,2.6215671,48.6104417,371100,508700,26,,8 RUE D OURDY,T4|T5,https://dj32ymiemc11o.cloudfront.net/eyJidWNrZXQiOiJvdGFyZWUtcHJvZHVjdGlvbi1maWxlcyIsImtleSI6IjRmMjA0ZTlhYjZiNDc0MDEwZjYzYTFlODk1MGRhZWE0NWMzOWRjZjciLCJlZGl0cyI6eyJyZXNpemUiOnsid2lkdGgiOjM4MCwiaGVpZ2h0IjozMDAsImZpdCI6ImNvdmVyIn19fQ==?signature=06fbe6fc174a34a3ea284216c98fa29a48d0df96e4ac6372cc27b7c5bd35916f
77430,LE RIVE DROITE#d7b14938ea25,d7b14938ea25,B1,Champagne-sur-Seine,LE RIVE DROITE,False,2026T4,Green City,2.8024621,48.40032,212900,252900,6,,rue de sens,T1 Bis|T2|T3,
77600,VIA VERDE#a8da6e61e08a,a8da6e61e08a,A,Bussy-Saint-Georges,VIA VERDE,False,2025T1,E-mocom,2.734424,48.834027,449000,449000,1,,Angle du boulevard Guibert et de l'avenue de l'Europe,T4|T5,https://dj32ymiemc11o.cloudfront.net/eyJidWNrZXQiOiJvdGFyZWUtcHJvZHVjdGlvbi1maWxlcyIsImtleSI6IjlkZWY4YjcxNjA5MGIxMmNjMjI4MmMxNTExNzQzY2ZjNzYwOTczMTkiLCJlZGl0cyI6eyJyZXNpemUiOnsid2lkdGgiOjM4MCwiaGVpZ2h0IjozMDAsImZpdCI6ImNvdmVyIn19fQ==?signature=1754b5b842bf194c8fe0c04240f05769adaa849fcd4582185c8f00d2627c28ee
77140,LES JARDINS DU GRAND PONT#f821d844b7f2,f821d844b7f2,B1,Nemours,LES JARDINS DU GRAND PONT,False,2026T3,Les Nouveaux Constructeurs,2.7020129,48.2675508,168300,283000,34,, 28 rue du Souvenir,T2|T3|T4,https://dj32ymiemc11o.cloudfront.net/eyJidWNrZXQiOiJvdGFyZWUtcHJvZHVjdGlvbi1maWxlcyIsImtleSI6IjdiODZkOTBmYzlhNDg0YTQ3N2QwNmU5ZjY5MzIyYjEwOWUwZjkwMWYiLCJlZGl0cyI6eyJyZXNpemUiOnsid2lkdGgiOjM4MCwiaGVpZ2h0IjozMDAsImZpdCI6ImNvdmVyIn19fQ==?signature=2f89d75d78117d3de38f2b27640be43c7497044d853817f27ca74af17c385dd1
77380,LE SILVANCE#fb9346536aed,fb9346536aed,A,Combs-la-Ville,LE SILVANCE,False,2024T4,Green City,2.5556683,48.6647774,359900,359900,1,,"7-9 avenue de la République, 9 allée de Bel air",T1|T2|T3|T4,
77160,SERENLY PROVINS#e9dc43e98aee,e9dc43e98aee,B1,Provins,SERENLY PROVINS,False,2026T3,LP Promotion,3.3081145,48.5614373,141750,226000,33,Senior,6-10 Avenue de la Libération,T1|T2|T3,
77680,NOUVEAU JOUR#dbd7cc848061,dbd7cc848061,A,Roissy-en-Brie,NOUVEAU JOUR,False,2026T4,Les Nouveaux Constructeurs,2.6542955,48.7973342,218121,347100.28,32,,1 Rue Yitzhak Rabin,T1|T2|T3|T4,https://dj32ymiemc11o.cloudfront.net/eyJidWNrZXQiOiJvdGFyZWUtcHJvZHVjdGlvbi1maWxlcyIsImtleSI6Ijg4ZGI0ODAxNTUyYmYxNzk5MjY5ZDJmN2Y4OWNhYTZkMzU5ODJkNDkiLCJlZGl0cyI6eyJyZXNpemUiOnsid2lkdGgiOjM4MCwiaGVpZ2h0IjozMDAsImZpdCI6ImNvdmVyIn19fQ==?signature=506ca386f7440e53e23613961d25fec63d6b98b2726ad6aa59c39384b0c825d9
77100,Les Senioriales en ville de Meaux#5422fb044bfb,5422fb044bfb,A,Meaux,Les Senioriales en ville de Meaux,True,2022T4,Les Senioriales - Pierre & Sens,2.8863688,48.961536,208378,218380,2,,25  rue des Cordeliers,T2,
77330,Villa Cassandre#683b29ca9714,683b29ca9714,A,Ozoir-la-Ferrière,Villa Cassandre,False,2025T4,Kaufman & Broad,2.6831608,48.7703252,224000,273000,4,,2 rue Henri François,T2|T3|T4,https://dj32ymiemc11o.cloudfront.net/eyJidWNrZXQiOiJvdGFyZWUtcHJvZHVjdGlvbi1maWxlcyIsImtleSI6ImE2NDdmNTljYmFmNTEzNmNjODQzOGE4NDQ3ZWYyNzFiZWQ5NTNhM2YiLCJlZGl0cyI6eyJyZXNpemUiOnsid2lkdGgiOjM4MCwiaGVpZ2h0IjozMDAsImZpdCI6ImNvdmVyIn19fQ==?signature=3dc1786c838d305b44b468cbf60effd6846478b28113aa6d06b916a1269c1726
77410,Chateau de Louche#c044fa068402,c044fa068402,B1,Annet-sur-Marne,Château de Louche,True,2006T1,CELAVi pierre,2.7193897,48.9248296,147343.36,147343.36,1,EHPAD,59 Rue du Général de Gaulle,Chambre,https://dj32ymiemc11o.cloudfront.net/eyJidWNrZXQiOiJvdGFyZWUtcHJvZHVjdGlvbi1maWxlcyIsImtleSI6ImI3MGIzZDZkZTIxOTNmNGU4ZmZjZjExZDQ0MzIxYTc1MjllNTg3NTUiLCJlZGl0cyI6eyJyZXNpemUiOnsid2lkdGgiOjM4MCwiaGVpZ2h0IjozMDAsImZpdCI6ImNvdmVyIn19fQ==?signature=fd7c940f750cffa8ad66a6bdaaaf6caf6309964645f2940bd6acd25c97dc71ae
77500,16 RUE DE GOURNAY - Bat A#72fc9a309c31,72fc9a309c31,A,Chelles,16 RUE DE GOURNAY - Bât A,False,2025T4,Angelys,2.5745811,48.8684406,156540,160390,2,,16 Rue de Gournay - Bat A,Studio|T1|T2|T2 Duplex,https://dj32ymiemc11o.cloudfront.net/eyJidWNrZXQiOiJvdGFyZWUtcHJvZHVjdGlvbi1maWxlcyIsImtleSI6IjBkNmY0ZGEzNTliOTgzNzA2OWFiNDNjYTdhODE2N2JkIiwiZWRpdHMiOnsicmVzaXplIjp7IndpZHRoIjozODAsImhlaWdodCI6MzAwLCJmaXQiOiJjb3ZlciJ9fX0=?signature=d80d52ae3815e4034013914c23b62bd9105486cc5a81a1c781fda946d7b58eee
77100,JARDIN VICTOIRE#b4e6c56af713,b4e6c56af713,A,Meaux,JARDIN VICTOIRE,True,2024T3,LP Promotion,2.9060931,48.9518108,175695,201295,15,Senior,Avenue de l'Appel du 18 juin 1940,T2|T3,
77210,Les Dryades#f7180595f804,f7180595f804,A,Avon,Les Dryades,False,2024T4,Immobel,2.7358488,48.4201645,324412.5,369000,1,,29 bis et 29 ter avenue du Général de Gaulle,COMMERCE|T1|T2|T3|T4|T5,https://dj32ymiemc11o.cloudfront.net/eyJidWNrZXQiOiJvdGFyZWUtcHJvZHVjdGlvbi1maWxlcyIsImtleSI6IjM4NjVhNTk3ZDdhODE0ZTRmZjVhMDcwODJlYzY1YTVhMDg1NmJkZDkiLCJlZGl0cyI6eyJyZXNpemUiOnsid2lkdGgiOjM4MCwiaGVpZ2h0IjozMDAsImZpdCI6ImNvdmVyIn19fQ==?signature=8513f495e13175e1e9413750ddbf387883b77778a63b8a373e8cbd7ef49968ae
77144,Residence du Parc***#1ba1a7953c19,1ba1a7953c19,A,Montévrain,Residence du Parc***,True,2007T4,Revenu Pierre,2.7606896,48.866417,100000,100000,1,Business,2 Rue Edouard Buffard ,T1 Bis,https://dj32ymiemc11o.cloudfront.net/eyJidWNrZXQiOiJvdGFyZWUtcHJvZHVjdGlvbi1maWxlcyIsImtleSI6IjMyMjVmMmUyYTNkNjk3ZThjYmU1ODgyNTA2OGJiZGQyMmMwYjk2OTgiLCJlZGl0cyI6eyJyZXNpemUiOnsid2lkdGgiOjM4MCwiaGVpZ2h0IjozMDAsImZpdCI6ImNvdmVyIn19fQ==?signature=a01f3dd7f537912f7ee3d0305b389b25f4fd5f3ad98cd3d30dad17eab42a64e2
77410,Les Jardins de Villevaude 1#fe88f6626252,fe88f6626252,B1,Villevaudé,Les Jardins de Villevaudé 1,False,2027T2,Nexity,2.6686098,48.9083653,347200,448000,10,,41 RUE DE LA TOUR,T4|T5,
77160,RUELLE AUX VIGNES 6#acd449b6ee06,acd449b6ee06,B1,Provins,RUELLE AUX VIGNES 6,False,2026T2,Edouard Denis,3.3044314,48.5549874,188000,264000,3,,17 RTE DE CHALAUTRE-LA-PETIT,T1|T2|T4,
77700,La Boiserie#a38202679a6e,a38202679a6e,A,Magny-le-Hongre,La Boiserie,True,1992T2,Consultim,2.8203809,48.861845,131424.46,173108.68,3,Business,rue de La Boiserie,Studio|Studio+,https://dj32ymiemc11o.cloudfront.net/eyJidWNrZXQiOiJvdGFyZWUtcHJvZHVjdGlvbi1maWxlcyIsImtleSI6Ijk5MDEyMGVmMGI5MmU0ZWJlZjM1MGU0ZDhiYzU5ZWUzMzliY2I1MDQiLCJlZGl0cyI6eyJyZXNpemUiOnsid2lkdGgiOjM4MCwiaGVpZ2h0IjozMDAsImZpdCI6ImNvdmVyIn19fQ==?signature=c685d1bba1d7ec57d17ee3b051d872baba8d7763e06480d7c7b27993602181a6
77300,7 avenue du Touring Club#b28ac5e05961,b28ac5e05961,A,Fontainebleau,7 avenue du Touring Club,False,2025T4,MCI Invest,2.7174568,48.415613,255000,659000,9,,"7 Av. du Touring Club, 77300 Fontainebleau, France",T2|T3|T5,https://dj32ymiemc11o.cloudfront.net/eyJidWNrZXQiOiJvdGFyZWUtcHJvZHVjdGlvbi1maWxlcyIsImtleSI6IjJhYjBiNDY1ZWJlMjc4ZmZkYjU0NDkwNzQ5OTllZTQ1MzI3N2RmY2YiLCJlZGl0cyI6eyJyZXNpemUiOnsid2lkdGgiOjM4MCwiaGVpZ2h0IjozMDAsImZpdCI6ImNvdmVyIn19fQ==?signature=fc95ca95b37a090df194fc888d56215c46fd1e583533bcb34fc48a042281fe9a
77220,Le Domaine de Vermay#cb6644274d2d,cb6644274d2d,A,Tournan-en-Brie,Le Domaine de Vermay,False,2025T1,Kaufman & Broad,2.750813,48.738925,240000,267000,5,,Rue de Paris,T1|T2|T3|T4,https://dj32ymiemc11o.cloudfront.net/eyJidWNrZXQiOiJvdGFyZWUtcHJvZHVjdGlvbi1maWxlcyIsImtleSI6ImE2OWJiNTJmY2MzNzZhZTcxZWZlNDIxODk4N2ZlYWIzMDA3OTM0Y2MiLCJlZGl0cyI6eyJyZXNpemUiOnsid2lkdGgiOjM4MCwiaGVpZ2h0IjozMDAsImZpdCI6ImNvdmVyIn19fQ==?signature=dd4177bd6e91b00505af76929a86b4577b1fd3ae811987c15224a2f58efea357
77700,So'Art#821d2ac2ebf0,821d2ac2ebf0,A,Serris,So'Art,False,2025T2,Inovefa,2.788231,48.84432,279000,559000,17,,ZAC DU PRE DE CLAYE - Rue de Navarre,T1|T2|T3|T4|T5|T6,https://dj32ymiemc11o.cloudfront.net/eyJidWNrZXQiOiJvdGFyZWUtcHJvZHVjdGlvbi1maWxlcyIsImtleSI6Ijc4ZmJhZjJhN2Q0NzVmNjFiNzBkMGI2Mjc5NTE3ZTVkMTJhMTNiMDQiLCJlZGl0cyI6eyJyZXNpemUiOnsid2lkdGgiOjM4MCwiaGVpZ2h0IjozMDAsImZpdCI6ImNvdmVyIn19fQ==?signature=edbaa043d14167c4392bd028390d98ec3508e759c81cce2859c248e9978b288f
77700,Villages Nature Paris#65829c0360c6,65829c0360c6,A,Bailly-Romainvilliers,Villages Nature Paris,True,2012T4,Pierre & Sens,2.8240375,48.8385541,280756,280756,1,Tourism,Route de Villeneuve,T2|T3|T4,
77120,TERRASSES DE VAUX 8#4be27bd9ff3b,4be27bd9ff3b,B1,Coulommiers,TERRASSES DE VAUX 8,False,2025T2,Edouard Denis,3.0773513,48.8059253,221000,231000,5,,PL. DE L'ILE DE FRANCE,T1|T2|T3|T4,
77450,Location courte duree - T2 - 200m2 - Lesches#07385fe4f21e,07385fe4f21e,B1,Lesches,Location courte durée - T2 - 200m2 - Lesches,False,2025T3,Investissement clés en main,2.803552,48.9120769,690143.92,690143.92,1,,108 Bis Avenue de la République,T2,https://dj32ymiemc11o.cloudfront.net/eyJidWNrZXQiOiJvdGFyZWUtcHJvZHVjdGlvbi1maWxlcyIsImtleSI6IjhjYmEzNGFjNGIzY2FjNDA3MjdhMzQwMjA0MDc5MDBmZWVmMzVkMDQiLCJlZGl0cyI6eyJyZXNpemUiOnsid2lkdGgiOjM4MCwiaGVpZ2h0IjozMDAsImZpdCI6ImNvdmVyIn19fQ==?signature=c7eb50a563200141a40481853325d05fbc14731fc7daac0bc6ee3eb5faafb06d
77500,City Residence Chelles#5cb0803b3be1,5cb0803b3be1,A,Chelles,City Residence Chelles,True,2005T4,Revenu Pierre,2.6009237,48.8771927,72300,72300,1,Business,55 Avenue Francois Mitterrand ,T1|T2,https://dj32ymiemc11o.cloudfront.net/eyJidWNrZXQiOiJvdGFyZWUtcHJvZHVjdGlvbi1maWxlcyIsImtleSI6ImY5MTIzMTE0Mjk3OWJlYjM4ZWQwZTJiN2ViNjM4Y2Y2ODgzNGIwNTQiLCJlZGl0cyI6eyJyZXNpemUiOnsid2lkdGgiOjM4MCwiaGVpZ2h0IjozMDAsImZpdCI6ImNvdmVyIn19fQ==?signature=9e4fd5d07994a493084ad70011cc87b4e745c0e0f8171d57f5b365acfe4e8764
77600,SEEKO#f51f0e928c00,f51f0e928c00,A,Bussy-Saint-Georges,SEEKO,False,2025T4,LP Promotion,2.7377287,48.8375096,306900,449900,12,,ZAC du Sycomore Lot SY18A,T2|T3|T4|T5 Duplex,
77210,Les Jardins d'Arcadie Avon AVON - FONTAINEBLEAU - 77#c163a49084e2,c163a49084e2,A,Avon,Les Jardins d'Arcadie Avon AVON - FONTAINEBLEAU - 77,True,,Pierre Loyers Conseil,2.7229042,48.4161317,116523.61,116523.61,1,EHPAD,"54-56, avenue Franklin Roosevelt",T1|T1 Bis,https://dj32ymiemc11o.cloudfront.net/eyJidWNrZXQiOiJvdGFyZWUtcHJvZHVjdGlvbi1maWxlcyIsImtleSI6IjgxMDY0MmU5MzJhNTk5ODUyNTMwNDEwODY4NWQzZjg3ZWNmODc0YTMiLCJlZGl0cyI6eyJyZXNpemUiOnsid2lkdGgiOjM4MCwiaGVpZ2h0IjozMDAsImZpdCI6ImNvdmVyIn19fQ==?signature=271176d9eb7aae9cf5ecced1e7a7c2e83fcb1a25e13a55b2dba672495435905f
77090,Sentier Solea : Appartements 6#b76d29b16945,b76d29b16945,A,Collégien,Sentier Soléa : Appartements 6,False,2026T4,Nexity,2.672072,48.8314965,421000,446000,2,,,T4|T5,
77600,Demain#01aa7209c6dc,01aa7209c6dc,A,Bussy-Saint-Georges,Demain,False,2024T4,Care Promotion,2.7055097,48.8410326,235000,484000,7,,70 Boulevard de Lagny,T1|T2|T3|T4|T5,https://dj32ymiemc11o.cloudfront.net/eyJidWNrZXQiOiJvdGFyZWUtcHJvZHVjdGlvbi1maWxlcyIsImtleSI6Ijc5NmYxNzg2MmNlODVjOWRkNWU5ZWRhYTUxOTUyZGI1NTRjYmIyODMiLCJlZGl0cyI6eyJyZXNpemUiOnsid2lkdGgiOjM4MCwiaGVpZ2h0IjozMDAsImZpdCI6ImNvdmVyIn19fQ==?signature=027adb0f08abbfc5cbdc31629f86eedc374d0e88974847c20afea104e4b5aa23
77700,Les Allees des Trois Ormes Chapitre 1#faefe48aa0ed,faefe48aa0ed,A,Coupvray,Les Allées des Trois Ormes Chapitre 1,False,2025T2,Marignan,2.8011627,48.8882151,360000,609200,11,,CHATEAU DE COUPVRAYCHEMIN DE MAGNY LE HONGRE77700 COUPVRAY,Maison T3|Maison T4|Maison T5|Maison T6|T4,https://dj32ymiemc11o.cloudfront.net/eyJidWNrZXQiOiJvdGFyZWUtcHJvZHVjdGlvbi1maWxlcyIsImtleSI6IjQ5NDU1YTNlMGZkYmUwZGVjZDZkNDNmZDM5ZjM3MTc1NmQ1MzQzYTQiLCJlZGl0cyI6eyJyZXNpemUiOnsid2lkdGgiOjM4MCwiaGVpZ2h0IjozMDAsImZpdCI6ImNvdmVyIn19fQ==?signature=9561b1ed319749f360da95c0698d9c6af792112518495841b8f76234264b65e6
77700,Studea Val d'Europe 1#3c90b1d607ca,3c90b1d607ca,A,Serris,Studea Val d'Europe 1,True,2005T4,Revenu Pierre,2.7854193,48.8554167,60000,100700,6,Student,7 Cours de la Garonne ,T1,https://dj32ymiemc11o.cloudfront.net/eyJidWNrZXQiOiJvdGFyZWUtcHJvZHVjdGlvbi1maWxlcyIsImtleSI6IjE4OTJlMzUzMTAxYmUzZTNiZGQyYzkzM2ZlNzEzNGExNTllMjgxYzYiLCJlZGl0cyI6eyJyZXNpemUiOnsid2lkdGgiOjM4MCwiaGVpZ2h0IjozMDAsImZpdCI6ImNvdmVyIn19fQ==?signature=8307a0e123b5c8eb2e9dca41f999c441a74ee6d3052d8b92abaf83a8ec00e143
77190,L'Allee de l'Ermitage#1c0958f747f8,1c0958f747f8,A,Dammarie-les-Lys,L'Allée de l'Ermitage,False,2026T4,Kaufman & Broad,2.6395878,48.5154156,179000,332000,18,,187 Rue Pierre Curie,T1|T2|T3|T4,https://dj32ymiemc11o.cloudfront.net/eyJidWNrZXQiOiJvdGFyZWUtcHJvZHVjdGlvbi1maWxlcyIsImtleSI6Ijk1MDJkMzAzNDlmNTcyZmVmZDA5Mjg4YzRjOTZlYjU3ODIyM2IyZDUiLCJlZGl0cyI6eyJyZXNpemUiOnsid2lkdGgiOjM4MCwiaGVpZ2h0IjozMDAsImZpdCI6ImNvdmVyIn19fQ==?signature=61f9dab646c606e41f21cccc27b880d20662cddec67d69ec32fbd95470a4b7e6
77130,Le Domaine Saint-Georges - Appartements#a20cd0f6d025,a20cd0f6d025,B1,Cannes-Écluse,Le Domaine Saint-Georges - Appartements,False,2026T1,Kaufman & Broad,2.9801683,48.3617224,148000,264000,4,,27 Chemin des Graviers,T2|T3|T4,
77100,49E AVENUE#a1bf3fb41b58,a1bf3fb41b58,A,Meaux,49E AVENUE,False,2025T3,Pichet (RP),2.8892349,48.9532812,249500,394000,4,,AVE DU MARECHAL FOCH,T1|T2|T3|T4|T5|T5 Duplex,https://dj32ymiemc11o.cloudfront.net/eyJidWNrZXQiOiJvdGFyZWUtcHJvZHVjdGlvbi1maWxlcyIsImtleSI6IjU2MDM5NmY1ZjU3ZWU0YzFkOTIxMDUyMmM1NTlhYjQxNjRlZGQxYWYiLCJlZGl0cyI6eyJyZXNpemUiOnsid2lkdGgiOjM4MCwiaGVpZ2h0IjozMDAsImZpdCI6ImNvdmVyIn19fQ==?signature=4bab9a1323c0a1ad48a878b0fe050133d391801b738e05a429d214c40460369f
77450,Location courte duree - T6 - 233m2 - Lesches#031c15cdb483,031c15cdb483,B1,Lesches,Location courte durée - T6 - 233m2 - Lesches,False,2025T2,Investissement clés en main,2.803552,48.9120769,708347.44,708347.44,1,,108 avenue de la République,T6,https://dj32ymiemc11o.cloudfront.net/eyJidWNrZXQiOiJvdGFyZWUtcHJvZHVjdGlvbi1maWxlcyIsImtleSI6IjBhMjhiNTA4ZDY3ZGI0OWE0MzBmN2JmMzRkYTljMjU4NGM2M2Y2NzIiLCJlZGl0cyI6eyJyZXNpemUiOnsid2lkdGgiOjM4MCwiaGVpZ2h0IjozMDAsImZpdCI6ImNvdmVyIn19fQ==?signature=384eb2f7851321dc8b56b8ffc2a45c2630d37d7756adefd0679267de22ec8e03
77260,La Meuliere de la Marne LA FERTE-SOUS-JOUARRE - 77#7c1dd1ca5ef2,7c1dd1ca5ef2,B1,La Ferté-sous-Jouarre,La Meulière de la Marne LA FERTE-SOUS-JOUARRE - 77,True,,Pierre Loyers Conseil,3.1314799,48.9513186,169196.08,169196.08,1,EHPAD,20 bis Boulevard du 8 Mai 1945,T1,https://dj32ymiemc11o.cloudfront.net/eyJidWNrZXQiOiJvdGFyZWUtcHJvZHVjdGlvbi1maWxlcyIsImtleSI6IjNlYzNmZDA4YmU0MWQ2MjNmNDk2MjFkYzJkMTdkYjRkMTIwYzQwNDQiLCJlZGl0cyI6eyJyZXNpemUiOnsid2lkdGgiOjM4MCwiaGVpZ2h0IjozMDAsImZpdCI6ImNvdmVyIn19fQ==?signature=925b879e0162e327942d8a0a0cec8cc4d087de6070bb2bc9e89f1d67f647cce9
77100,LE PARC DU MELDOIS#a9f83bcf31c8,a9f83bcf31c8,A,Meaux,LE PARC DU MELDOIS,False,2025T2,Fidexi,2.8693168,48.9590051,203091,213478,92,EHPAD,2b Rue d'Orgemont,Chambre simple|T1,https://dj32ymiemc11o.cloudfront.net/eyJidWNrZXQiOiJvdGFyZWUtcHJvZHVjdGlvbi1maWxlcyIsImtleSI6IjA0ZTM3Y2ZiOGFmNGVkOWIxMTVlYWM4ZTgyNGM3YThmYjU0OTBjNDMiLCJlZGl0cyI6eyJyZXNpemUiOnsid2lkdGgiOjM4MCwiaGVpZ2h0IjozMDAsImZpdCI6ImNvdmVyIn19fQ==?signature=58bfba7ce22b8b05bf7f0afd2f99327a1441b29471e07b8fd81c51a3317fe147
77340,LES TERRASSES D'ALBANE#c5b32150b6ce,c5b32150b6ce,A,Pontault-Combault,LES TERRASSES D'ALBANE,False,2025T3,Les Nouveaux Constructeurs,2.6041101,48.7917922,255900,425400,7,,122-126 AVENUE CHARLES ROUXEL,T2|T3|T4,
77100,LES TERRASSES DES CANOTIERS#18519f994fd8,18519f994fd8,A,Meaux,LES TERRASSES DES CANOTIERS,False,2026T2,Les Nouveaux Constructeurs,2.8920258,48.9538947,182000,347200,37,,68-78 AVENUE MARECHAL FOCH,T1|T2|T3|T4,https://dj32ymiemc11o.cloudfront.net/eyJidWNrZXQiOiJvdGFyZWUtcHJvZHVjdGlvbi1maWxlcyIsImtleSI6IjQ4NDI0MTM4NGE5NDM0MzQ0NzljYTI1YzA1N2RkNmU5MDUyZDE0MDAiLCJlZGl0cyI6eyJyZXNpemUiOnsid2lkdGgiOjM4MCwiaGVpZ2h0IjozMDAsImZpdCI6ImNvdmVyIn19fQ==?signature=f08e71681f83a8e02d5d8e4f201f124997469948e54aac366df60b71e1df2ff9
77700,LE LIBERTY#9d6a7a6d62d4,9d6a7a6d62d4,A,Chessy,LE LIBERTY,False,,Les Nouveaux Constructeurs,2.7688412,48.8607936,271000,271000,1,,Angle rue Cabu et rue d'Ariane,T2,https://dj32ymiemc11o.cloudfront.net/eyJidWNrZXQiOiJvdGFyZWUtcHJvZHVjdGlvbi1maWxlcyIsImtleSI6ImU0NzEyNjAxOTM4ZTk3OTYzMTIxYTYzMGZhM2NmZjM0M2Y5ODQ4NzEiLCJlZGl0cyI6eyJyZXNpemUiOnsid2lkdGgiOjM4MCwiaGVpZ2h0IjozMDAsImZpdCI6ImNvdmVyIn19fQ==?signature=d3e946fe87e80f49e30df6f1ace4500a09dd89d3476226b4c680d72dcbdcb3f4
77420,LE DOMAINE DU PARC#b965d0b4051b,b965d0b4051b,A,Champs-sur-Marne,LE DOMAINE DU PARC,False,2025T1,Les Nouveaux Constructeurs,2.5781242,48.8545281,495586,563699.72,1,,RUE ALBERT SCHWEITZER,T2|T3|T4|T5,https://dj32ymiemc11o.cloudfront.net/eyJidWNrZXQiOiJvdGFyZWUtcHJvZHVjdGlvbi1maWxlcyIsImtleSI6ImZiODUyNDRjM2VhOGVjZjkzNWYzMWNkZWY1NDk5ZmRkYWIyYWU5MmUiLCJlZGl0cyI6eyJyZXNpemUiOnsid2lkdGgiOjM4MCwiaGVpZ2h0IjozMDAsImZpdCI6ImNvdmVyIn19fQ==?signature=72198aab56bc73f6054ed0d14ff731cf5a70cdf2c0e0071dd62479f9e4da72f0
77700,La ferme de Chessy#2738e42ce8f4,2738e42ce8f4,A,Chessy,La ferme de Chessy,False,2024T4,Cogedim,2.7690732,48.8756396,250000,250000,1,,CHEMIN DU BICHERET,T1 Bis|T2|T2/T3|T3|T4|T5,
77127,Natureva#64cb05d15a28,64cb05d15a28,A,Lieusaint,Naturéva,False,2026T4,Kaufman & Broad,2.5566081,48.6319174,199000,399000,41,,Rue de la Linotte Mélodieuse,T1|T2|T3|T4|T5,https://dj32ymiemc11o.cloudfront.net/eyJidWNrZXQiOiJvdGFyZWUtcHJvZHVjdGlvbi1maWxlcyIsImtleSI6ImIwMTcwMTkyYjgzNjAwOWNiMzNmNWUwY2U1OGFjMjMzMTlmZDc4ZTQiLCJlZGl0cyI6eyJyZXNpemUiOnsid2lkdGgiOjM4MCwiaGVpZ2h0IjozMDAsImZpdCI6ImNvdmVyIn19fQ==?signature=90d46ed4d09f2c3a9a69ffa013fc08f9bbf4ea92b571222e43f24d568ea59d5f
77450,Location courte duree - T5 - 98m2 - Trilbardou#a78885d5162a,a78885d5162a,B1,Trilbardou,Location courte durée - T5 - 98m2 - Trilbardou,False,2025T2,Investissement clés en main,2.8058524,48.9427825,386941.22,386941.22,1,,2 Rue du Marechal Gallieni,T5,https://dj32ymiemc11o.cloudfront.net/eyJidWNrZXQiOiJvdGFyZWUtcHJvZHVjdGlvbi1maWxlcyIsImtleSI6ImVjMDJkM2VkMjVhYzczZjA3ZDVjMDg2NzlmYjJjYjZjNjE2MGMxYTMiLCJlZGl0cyI6eyJyZXNpemUiOnsid2lkdGgiOjM4MCwiaGVpZ2h0IjozMDAsImZpdCI6ImNvdmVyIn19fQ==?signature=48d21fff2e332578f90ff1d2b8ae67782fa01ee543b3289a31a9d2e4e74c049e
77100,SQUARE FOCH#72dcd730ff57,72dcd730ff57,A,Meaux,SQUARE FOCH,False,2027T4,Vinci Immobilier,2.8876749,48.9529492,162000,384000,9,,24 avenue du Maréchal Foch,T1|T2|T3|T4,https://dj32ymiemc11o.cloudfront.net/eyJidWNrZXQiOiJvdGFyZWUtcHJvZHVjdGlvbi1maWxlcyIsImtleSI6ImZiMzIzMjMzMGVkOWEzNDZkMThhODgyOWYwODM0MDhhMjU2OGFlN2UiLCJlZGl0cyI6eyJyZXNpemUiOnsid2lkdGgiOjM4MCwiaGVpZ2h0IjozMDAsImZpdCI6ImNvdmVyIn19fQ==?signature=d237ba22e4ccdffbd089243af975ff2ff838300c5574cda809a9b966452bbc0b
77380,VILLA MANSART#91a975b73398,91a975b73398,A,Combs-la-Ville,VILLA MANSART,True,2024T1,E-mocom,2.563935,48.665113,268000,301000,5,,6 rue des Vallées,T3|T4,https://dj32ymiemc11o.cloudfront.net/eyJidWNrZXQiOiJvdGFyZWUtcHJvZHVjdGlvbi1maWxlcyIsImtleSI6IjYxYjg5N2I3NDMyZTEwY2FkYTYzZTc3MzQ5N2ViNzk3MTJjOTBiMzkiLCJlZGl0cyI6eyJyZXNpemUiOnsid2lkdGgiOjM4MCwiaGVpZ2h0IjozMDAsImZpdCI6ImNvdmVyIn19fQ==?signature=47b6d846687a29ef50b0c4cad5b2478092c0553595baefdb37644cb79ca586ca
77700,Domaine du Golf#65fa9a0589b3,65fa9a0589b3,A,Bailly-Romainvilliers,Domaine du Golf,True,2019T4,Consultim,2.8140105,48.8528069,138771.95,138771.95,1,Business,Allée de l'Orme Rond,Studio|T1|T2|UH1 Bis,https://dj32ymiemc11o.cloudfront.net/eyJidWNrZXQiOiJvdGFyZWUtcHJvZHVjdGlvbi1maWxlcyIsImtleSI6ImVjM2I0NmExMzlhZjcxNTE5Y2RmZTNiYjdkMmY0YmUxNTQ4YjIxMzUiLCJlZGl0cyI6eyJyZXNpemUiOnsid2lkdGgiOjM4MCwiaGVpZ2h0IjozMDAsImZpdCI6ImNvdmVyIn19fQ==?signature=fb75ff35eec783b1c23801086fdaf222fdc68116b9613eb229fb72aeefba8e15
77700,Adagio Paris Val d'europe#8c1f69851834,8c1f69851834,A,Serris,Adagio Paris Val d'europe,True,2003T2,Consultim,2.7868496,48.8558676,160307.71,160307.71,1,Business,42 Cours du Danube,T2,https://dj32ymiemc11o.cloudfront.net/eyJidWNrZXQiOiJvdGFyZWUtcHJvZHVjdGlvbi1maWxlcyIsImtleSI6IjM4NDY3ODEyMDk0NDNhYmIyM2QwNGVjODg2YmNmMDUwMTIzMjA5MjQiLCJlZGl0cyI6eyJyZXNpemUiOnsid2lkdGgiOjM4MCwiaGVpZ2h0IjozMDAsImZpdCI6ImNvdmVyIn19fQ==?signature=0dc8412408247770ce576c0a1b959c0fbe3c26f69db6fbed74d200b661f49a21
77127,L'OREE DU PARC#8625698788f5,8625698788f5,A,Lieusaint,L'OREE DU PARC,False,2026T4,Green City,2.5517226,48.6286933,263400,399900,21,,22/24 rue du Moulin à Vent,T1 Bis|T2|T2 Bis|T3|T3 Bis|T4 Duplex,
77260,LA MEULIERE DE LA MARNE - Marche secondaire#75553450f45d,75553450f45d,B1,La Ferté-sous-Jouarre,LA MEULIERE DE LA MARNE - Marché secondaire,True,2014T4,Fidexi,3.1314799,48.9513186,170807.83,175403.73,2,,20bis Boulevard du 8 Mai 1945,T1,https://dj32ymiemc11o.cloudfront.net/eyJidWNrZXQiOiJvdGFyZWUtcHJvZHVjdGlvbi1maWxlcyIsImtleSI6ImQ0ODNjZTdmM2EwZTFkNzYyMTQ4NzY0Mzc2ZDU3YTRlMzdkOWEzYmMiLCJlZGl0cyI6eyJyZXNpemUiOnsid2lkdGgiOjM4MCwiaGVpZ2h0IjozMDAsImZpdCI6ImNvdmVyIn19fQ==?signature=fba25bee28c95b8d8cd49c04ec4b921cff3960ac153925b6ef26edefab4b308a
77700,LA FERME DE CHESSY#e660e8ee87f5,e660e8ee87f5,A,Chessy,LA FERME DE CHESSY,False,2025T4,Histoire & Patrimoine,2.7690732,48.8756396,299900,546800,6,,CHEMIN DU BICHERET,T1 Bis|T2|T3|T3 / T4|T3 Duplex|T3 Triplex|T5 Triplex,
77230,PENSIONNAT DE JUILLY#a821cab8e5d1,a821cab8e5d1,B2,Juilly,PENSIONNAT DE JUILLY,False,2025T3,Histoire & Patrimoine,2.7055994,49.0120546,569300,589900,2,,7 RUE BARRE,T1|T1 Bis|T2|T2 Duplex|T2/T3|T3|T3 / T4|T3 Duplex|T3/T4 Duplex|T4 Duplex,https://dj32ymiemc11o.cloudfront.net/eyJidWNrZXQiOiJvdGFyZWUtcHJvZHVjdGlvbi1maWxlcyIsImtleSI6ImMxYzhmOGJmNTk0MmVjYjUyMGU2NmJiZWEwM2U4YzU2OWRmMTc4MjMiLCJlZGl0cyI6eyJyZXNpemUiOnsid2lkdGgiOjM4MCwiaGVpZ2h0IjozMDAsImZpdCI6ImNvdmVyIn19fQ==?signature=1d7bced0d29e4c8f191f69459871561a390fe4edb7741755294319f1d015aea4
77350,LE PARC DU MANOIR#a69e968a7b76,a69e968a7b76,A,Le Mée-sur-Seine,LE PARC DU MANOIR,False,2026T2,Les Nouveaux Constructeurs,2.6290296,48.5321152,202800,322000,29,,RUE DE L EGLISE,T2|T3|T4,https://dj32ymiemc11o.cloudfront.net/eyJidWNrZXQiOiJvdGFyZWUtcHJvZHVjdGlvbi1maWxlcyIsImtleSI6IjM2ODlkZWMyZmFhZjcxMGM5Y2Y2OGZlOTMwZGFlYzQzOWFjOGQ5NDQiLCJlZGl0cyI6eyJyZXNpemUiOnsid2lkdGgiOjM4MCwiaGVpZ2h0IjozMDAsImZpdCI6ImNvdmVyIn19fQ==?signature=dd871c8c9260965a6ba924caa34ba5686dcae7b233059d6e4dddd095f98e5d3a
77100,RESIDENCE JARDIN VICTOIRE#4e27495e3f47,4e27495e3f47,A,Meaux,RESIDENCE JARDIN VICTOIRE,False,,iSelection,2.9060931,48.9518108,207200,207200,1,Senior,Avenue de l'Appel du 18 juin 1940,T2|T3,
77160,Les Allees de la Voulzie#8e9dd8533fe5,8e9dd8533fe5,B1,Provins,Les Allées de la Voulzie,True,2024T3,Inovefa,3.3078191,48.5610863,179000,279000,28,,4-6 Avenue de la Libération,T2|T3|T4,https://dj32ymiemc11o.cloudfront.net/eyJidWNrZXQiOiJvdGFyZWUtcHJvZHVjdGlvbi1maWxlcyIsImtleSI6IjgwMGQzNWRlNmFkODQ1MGE0Nzk1NDc5ZjRmOTc3NTE2MTA2MTg1NmIiLCJlZGl0cyI6eyJyZXNpemUiOnsid2lkdGgiOjM4MCwiaGVpZ2h0IjozMDAsImZpdCI6ImNvdmVyIn19fQ==?signature=627a393c049ee07907874a8194fb51180e4463517d2b1a0d05b0d5775c29247f
77120,TERRASSES DE VAUX 5#fb0aa1491570,fb0aa1491570,B1,Coulommiers,TERRASSES DE VAUX 5,False,2025T2,Edouard Denis,3.0773513,48.8059253,199000,254000,13,,PL. DE L'ILE DE FRANCE,T1|T2|T3|T4,
77700,LES HAUTES MAISONS - 01 3#52f192b79e2d,52f192b79e2d,A,Magny-le-Hongre,LES HAUTES MAISONS - 01 3,True,2023T2,Nexity,2.8012077,48.879134,291000,291000,1,,RUE DE COURTALIN,T1|T2|T3|T4|T5,https://dj32ymiemc11o.cloudfront.net/eyJidWNrZXQiOiJvdGFyZWUtcHJvZHVjdGlvbi1maWxlcyIsImtleSI6IjE3YWMxNTVmOTczMDgwYWQwODRhZmQ0MGQzMzQyOTMwOGVkMzEyZTQiLCJlZGl0cyI6eyJyZXNpemUiOnsid2lkdGgiOjM4MCwiaGVpZ2h0IjozMDAsImZpdCI6ImNvdmVyIn19fQ==?signature=7afd7730b47bb7acbcf10133775017acc823fa762a1de58b702c3a9722ff52ab
77000,Florescence#6ff701c7b4ef,6ff701c7b4ef,A,Melun,Florescence,False,2025T3,MDH Promotion,2.6523811,48.5492159,254000,288909.95,1,,ZAC Plaine de Montaigu - Rue Linné & Allée des Ecuries,T1|T2|T3|T4,
77500,Le Clos Chantereine#b3506a8b24f5,b3506a8b24f5,A,Chelles,Le Clos Chantereine,False,2026T3,Kaufman & Broad,2.6221877,48.879452,241000,419000,27,,191 Avenue du Gendarme Castermant,T2|T3|T4,https://dj32ymiemc11o.cloudfront.net/eyJidWNrZXQiOiJvdGFyZWUtcHJvZHVjdGlvbi1maWxlcyIsImtleSI6IjA1NzhlN2U0YTk2ODQzNDJjMTUwZDI5Yzk4NzAwZjM1ZjM2NTFhMTkiLCJlZGl0cyI6eyJyZXNpemUiOnsid2lkdGgiOjM4MCwiaGVpZ2h0IjozMDAsImZpdCI6ImNvdmVyIn19fQ==?signature=325e59f85a490ef74fb628640efe8ea83b1e7afbaea7a38f21d15627a51ca187
77220,LES JARDINS JASMIN#6040ae1afbaf,6040ae1afbaf,A,Tournan-en-Brie,LES JARDINS JASMIN,False,2026T4,Les Nouveaux Constructeurs,2.7546645,48.7434603,234900,378200,20,,10 rue Jules Lefebvre,T2|T3|T4,https://dj32ymiemc11o.cloudfront.net/eyJidWNrZXQiOiJvdGFyZWUtcHJvZHVjdGlvbi1maWxlcyIsImtleSI6ImY5NTA4MzY4MjFjMTYxZDYyNjZlODk5OGMxN2E5ZDM4MWFmNmI1NGEiLCJlZGl0cyI6eyJyZXNpemUiOnsid2lkdGgiOjM4MCwiaGVpZ2h0IjozMDAsImZpdCI6ImNvdmVyIn19fQ==?signature=3c02b9d47da8d7ccef509e7b51a1298687cfce0bfbc93c64240f6ee6fefb9236
77000,GINKGO 2#112c8ee9af11,112c8ee9af11,A,Melun,GINKGO 2,False,2025T1,Nexity,2.6578917,48.5548971,208000,236587.67,1,,RUE PAUL EMILE VICTOR,T2|T3|T4,
77420,ARBOREA#d7c74e0dcab5,d7c74e0dcab5,A,Champs-sur-Marne,ARBOREA,False,2027T3,Vinci Immobilier,2.5817816,48.8489351,165000,423127.96,30,,ZAC des Hauts de Nesles,T1|T2|T3|T4|T5,
77100,LES SENIORIALES DE MEAUX#e9a121d0982d,e9a121d0982d,A,Meaux,LES SENIORIALES DE MEAUX,True,2022T2,Réalités Immobilier,2.8863245,48.9612258,218070,230046.67,3,Senior,RUE DES CORDELIERS,T2,https://dj32ymiemc11o.cloudfront.net/eyJidWNrZXQiOiJvdGFyZWUtcHJvZHVjdGlvbi1maWxlcyIsImtleSI6IjkxYzAwZDk5NzZjNjQyYTUwMDU5YzA0NjRkNjIwNTMxZjVjMDE3MzQiLCJlZGl0cyI6eyJyZXNpemUiOnsid2lkdGgiOjM4MCwiaGVpZ2h0IjozMDAsImZpdCI6ImNvdmVyIn19fQ==?signature=9035a17b7f9b7723f71926ce371715f3d9051576321bd0f2cca533863e7137e8
77600,Du Bois de Chigny CHANTELOUP-EN-BRIE - 77#eba1340aa9dc,eba1340aa9dc,A,Chanteloup-en-Brie,Du Bois de Chigny CHANTELOUP-EN-BRIE - 77,True,,Pierre Loyers Conseil,2.7386089,48.8588962,147444.8,147444.8,1,EHPAD,"35, RUE DES CHAMPS ROBAILLES",T1,https://dj32ymiemc11o.cloudfront.net/eyJidWNrZXQiOiJvdGFyZWUtcHJvZHVjdGlvbi1maWxlcyIsImtleSI6ImNjYmIzMTYwNjllMGM4YTVkM2MzNzQwOTljY2FlZDkxMjg1OGQ5N2EiLCJlZGl0cyI6eyJyZXNpemUiOnsid2lkdGgiOjM4MCwiaGVpZ2h0IjozMDAsImZpdCI6ImNvdmVyIn19fQ==?signature=b2fff4b575fc474d28616cea4799544e949e29383b8cd0571c162a18be47dfb3
77400,LES TERRASSES DE LA MADELEINE 1#4ea1febdba85,4ea1febdba85,A,Pomponne,LES TERRASSES DE LA MADELEINE 1,False,2025T2,Edouard Denis,2.702565,48.8823122,198000,371000,23,,15 RUE DE LA GARE,T1|T2|T3|T4,
77720,Le Chateau de Montjay BOMBON - 77#9d9c28016314,9d9c28016314,B2,Bombon,Le Château de Montjay BOMBON - 77,True,,Pierre Loyers Conseil,2.8440066,48.5594639,125459.47,125459.47,2,EHPAD,Lieu-Dit Montjay,T1,https://dj32ymiemc11o.cloudfront.net/eyJidWNrZXQiOiJvdGFyZWUtcHJvZHVjdGlvbi1maWxlcyIsImtleSI6IjkwNTZkM2E2MmU5M2JiYjliNjJmN2ZkYmEyMmE5ODI2Nzg4NGQ4NDUiLCJlZGl0cyI6eyJyZXNpemUiOnsid2lkdGgiOjM4MCwiaGVpZ2h0IjozMDAsImZpdCI6ImNvdmVyIn19fQ==?signature=54046aff558953a8cf3b32d249a0ef5f07eabb9624a502af82d7c46de54c6c1a
77680,Synopsis#4a2771fb0f04,4a2771fb0f04,A,Roissy-en-Brie,Synopsis,False,,Care Promotion,2.6551499,48.7909863,178000,369000,35,,5 rue Pasteur,T1|T2|T3|T4,https://dj32ymiemc11o.cloudfront.net/eyJidWNrZXQiOiJvdGFyZWUtcHJvZHVjdGlvbi1maWxlcyIsImtleSI6Ijg2ZDI3YTE3NjBlNDg3NmUzZGI2ZmMyYTEzZmI1YWZmZjI1ZDE4Y2YiLCJlZGl0cyI6eyJyZXNpemUiOnsid2lkdGgiOjM4MCwiaGVpZ2h0IjozMDAsImZpdCI6ImNvdmVyIn19fQ==?signature=ba552c154fabbcb87fd1c2acd54f33d04b8ef1bb9c024c4cdd4671ad16443322
77700,LA FERME DE CHESSY VEFA#f510ec216aa4,f510ec216aa4,A,Chessy,LA FERME DE CHESSY VEFA,False,2025T4,Histoire & Patrimoine,2.7690732,48.8756396,332200,535800,5,,CHEMIN DU BICHERET,T1|T2|T3 Duplex|T4 Duplex|T5 Duplex,
77100,INSTITUT DE READAPTATION DE MEAUX#02d0092ea8a0,02d0092ea8a0,A,Meaux,INSTITUT DE READAPTATION DE MEAUX,True,2023T2,Fidexi,2.8678917,48.9556063,229312.24,309445.07,7,,2 bis Rue d'Orgemont,Chambre simple|T1,https://dj32ymiemc11o.cloudfront.net/eyJidWNrZXQiOiJvdGFyZWUtcHJvZHVjdGlvbi1maWxlcyIsImtleSI6Ijk0MTkwZjA3YzE1OWI1ZjhlYWI3Nzc0Y2JmZWVhYWE4NThhYjZiMDciLCJlZGl0cyI6eyJyZXNpemUiOnsid2lkdGgiOjM4MCwiaGVpZ2h0IjozMDAsImZpdCI6ImNvdmVyIn19fQ==?signature=6d946fbabb61e6b3f64ec187b4c515183864a29273f1fb064eba2514206c6cda
77100,Les Promenades de l'Ourcq II#1a6446752c12,1a6446752c12,A,Meaux,Les Promenades de l'Ourcq II,False,2027T2,Kaufman & Broad,2.9014324,48.9495505,161766,328000,25,,1 Rue Paul Louis Courier,T1|T2|T3|T4,https://dj32ymiemc11o.cloudfront.net/eyJidWNrZXQiOiJvdGFyZWUtcHJvZHVjdGlvbi1maWxlcyIsImtleSI6ImQ4OTczZGU0NGFkOWQzNjdlYTNjZjgwZTNmZmJhYTM1OWYzZDE5MDUiLCJlZGl0cyI6eyJyZXNpemUiOnsid2lkdGgiOjM4MCwiaGVpZ2h0IjozMDAsImZpdCI6ImNvdmVyIn19fQ==?signature=1e19e6ddb874fb81ff86ab6d0ed3b1ea4a74df1f3f5396f38f084c8e46738fb5
77700,L'EXPLORATEUR#7ff8d1e820c1,7ff8d1e820c1,A,Coupvray,L'EXPLORATEUR,False,2025T4,Green City,2.802412,48.8869388,312900,414900,5,,RUE MARIE PARADIS,T2|T3|T4|T5,
77500,FAUBOURG CANAL#b82cf88d8104,b82cf88d8104,A,Chelles,FAUBOURG CANAL,False,2024T4,Coffim,2.5756886,48.8688143,271000,308246.45,1,,1-11 Allée des Pavillons,Studio|T1|T2|T3|T4,https://dj32ymiemc11o.cloudfront.net/eyJidWNrZXQiOiJvdGFyZWUtcHJvZHVjdGlvbi1maWxlcyIsImtleSI6IjQ4YjhmYTZkZDJkYmI4ZmE1Njk4ZmVmNTc5ZGJiYWNhMTM4ZTI2Y2IiLCJlZGl0cyI6eyJyZXNpemUiOnsid2lkdGgiOjM4MCwiaGVpZ2h0IjozMDAsImZpdCI6ImNvdmVyIn19fQ==?signature=ed813704c889617c6c7e87f70a1f87d77de5f1fb14f91255e0ad4f5d71fd98fc
77100,Les Promenades de l'Ourcq#dec7219c47fa,dec7219c47fa,A,Meaux,Les Promenades de l'Ourcq,False,2027T1,Kaufman & Broad,2.9014324,48.9495505,161766,306000,9,,1 Rue Paul Louis Courier,T1|T2|T3|T4,https://dj32ymiemc11o.cloudfront.net/eyJidWNrZXQiOiJvdGFyZWUtcHJvZHVjdGlvbi1maWxlcyIsImtleSI6IjYzM2MwZTliNjIyOTc1NzYxODNlZWU1YjgwNzU0MDc1Y2QxMWNmNzUiLCJlZGl0cyI6eyJyZXNpemUiOnsid2lkdGgiOjM4MCwiaGVpZ2h0IjozMDAsImZpdCI6ImNvdmVyIn19fQ==?signature=9897dbddb7315ec17c432663a6aa5f59ec9269420a470d6645d370b170698fc2
77100,Les Terrasses de Meldis#91ce5711300a,91ce5711300a,A,Meaux,Les Terrasses de Meldis,False,2025T3,MDH Promotion,2.8919209,48.9538382,170000,340094.79,25,,60 à 64 Avenue du Maréchal Foch,T2|T2+|T3|T4|T5,https://dj32ymiemc11o.cloudfront.net/eyJidWNrZXQiOiJvdGFyZWUtcHJvZHVjdGlvbi1maWxlcyIsImtleSI6ImFlZDc4ZGU5OWZhMTZiNjM1NzJjODZjNDhlYzg0ZDhmMWFlZWM5ODQiLCJlZGl0cyI6eyJyZXNpemUiOnsid2lkdGgiOjM4MCwiaGVpZ2h0IjozMDAsImZpdCI6ImNvdmVyIn19fQ==?signature=74a1f8799fc94dfa78329d4ee0e135921ad46791a2af50f921c06492b8444ca1
77290,L'OREE DU PARC#4f882903ea35,4f882903ea35,A,Mitry-Mory,L'ORÉE DU PARC,False,2024T4,Les Nouveaux Constructeurs,2.6130572,48.9783596,254000,254000,1,,CHEMIN DU BOUT DE LA VILLE,T2|T3|T4,https://dj32ymiemc11o.cloudfront.net/eyJidWNrZXQiOiJvdGFyZWUtcHJvZHVjdGlvbi1maWxlcyIsImtleSI6IjUwZWUxNTVlYzFmNDBjYzI0ZWM2MTU1YjFjZmI3OTFmNTdjOWZjYmMiLCJlZGl0cyI6eyJyZXNpemUiOnsid2lkdGgiOjM4MCwiaGVpZ2h0IjozMDAsImZpdCI6ImNvdmVyIn19fQ==?signature=bfbc9636a53f0ce3f7a923d0aae134aee6af4361954341b7af7258f1d6a8407d
77160,LE VITIS#6835b58d08db,6835b58d08db,B1,Provins,LE VITIS,False,,iSelection,3.3030453,48.5550858,175300,202300,3,,9 route de Champbenoist,T2|T3|T4,
77220,Residence Klarene TOURNAN-EN-BRIE - 77#014dfa16a0a9,014dfa16a0a9,A,Tournan-en-Brie,Résidence Klarène TOURNAN-EN-BRIE - 77,True,,Pierre Loyers Conseil,2.7595342,48.7415773,110923.9,110923.9,1,,"2bis, boulevard Isaac Pereire",T1,https://dj32ymiemc11o.cloudfront.net/eyJidWNrZXQiOiJvdGFyZWUtcHJvZHVjdGlvbi1maWxlcyIsImtleSI6IjllNTlhMzFlNDE1ZmNiNzhhMTBjNTBlMDBjZDJmOWQxMjY4OTVkZGMiLCJlZGl0cyI6eyJyZXNpemUiOnsid2lkdGgiOjM4MCwiaGVpZ2h0IjozMDAsImZpdCI6ImNvdmVyIn19fQ==?signature=a73cb3221e59845b559332bd7eba7cf744e926507602fcdacb33fc4982e04cbf
77950,LE PALISSANDRE#38d3c8146c1b,38d3c8146c1b,B1,Voisenon,LE PALISSANDRE,False,2025T4,Green City,2.665311,48.570505,267900,267900,1,,25-27 rue des Closeaux,T1 Bis|T2|T3|T4|T4 Duplex,
77000,Be Fine#251acfbdb758,251acfbdb758,A,Melun,Be Fine,False,2025T4,Crédit Agricole Immobilier,2.6523811,48.5492159,185191.2,355018.01,14,,Ilot 1C45 ZAC LA PLAINE DE MONTAIGU / Rue Linné,T1|T2|T3|T3 Duplex|T4|T4 Duplex|T5|T5 Duplex,https://dj32ymiemc11o.cloudfront.net/eyJidWNrZXQiOiJvdGFyZWUtcHJvZHVjdGlvbi1maWxlcyIsImtleSI6IjExZDk4Njc4NjZhNTYyNmQxZDk2NGZlMjI2OGEyNGRjN2ZmYTYwODAiLCJlZGl0cyI6eyJyZXNpemUiOnsid2lkdGgiOjM4MCwiaGVpZ2h0IjozMDAsImZpdCI6ImNvdmVyIn19fQ==?signature=f925116abd2d4fc716614d32a68f91d50a735fc9dfe6dee139f826a81236caf1
77700,Aparthotel Adagio Val d'Europe pres de Disneyland Paris#de3c1d149313,de3c1d149313,A,Serris,Aparthotel Adagio Val d'Europe pres de Disneyland Paris,True,2003T4,Revenu Pierre,2.7868496,48.8558676,170000,170000,1,Tourism,42 cours du Danube ,T2,https://dj32ymiemc11o.cloudfront.net/eyJidWNrZXQiOiJvdGFyZWUtcHJvZHVjdGlvbi1maWxlcyIsImtleSI6ImUyYjQwZGY4ZGJkNjM4OTk3OTcyMzViOTI0M2Y4YTU5MjVmZGJjZTciLCJlZGl0cyI6eyJyZXNpemUiOnsid2lkdGgiOjM4MCwiaGVpZ2h0IjozMDAsImZpdCI6ImNvdmVyIn19fQ==?signature=aec1e2f7e67abd3876288394028a75e129fe0367605c3e07d82db7bf4d7fe2f3
77190,Domaine Des Grands Chenes#fabeb43a2c33,fabeb43a2c33,A,Dammarie-les-Lys,Domaine Des Grands Chênes,False,2024T4,Groupe Eiffage,2.6527502,48.519192,318000,321000,2,,816 Avenue du Général Leclerc,T2|T3|T4|T5,https://dj32ymiemc11o.cloudfront.net/eyJidWNrZXQiOiJvdGFyZWUtcHJvZHVjdGlvbi1maWxlcyIsImtleSI6ImQ5MzdjZmQwMGE4YmVmNmU5ZWU5OTBiOGUwNGZmNTgxMTBmN2I0MmQiLCJlZGl0cyI6eyJyZXNpemUiOnsid2lkdGgiOjM4MCwiaGVpZ2h0IjozMDAsImZpdCI6ImNvdmVyIn19fQ==?signature=52b626b08f03151f34080b036891fe21dd6b4faa7f05ed610b2f323094efa027
77500,LES JARDINS D'ALICE#20a4906cbb40,20a4906cbb40,A,Chelles,LES JARDINS D'ALICE,True,2024T3,Pichet (RP),2.600932,48.8772636,340000,340000,1,,2 Avenue François Mitterrand,PARKING COUVERT|PARKING SOUS-SOL|T2|T3|T4|T5,https://dj32ymiemc11o.cloudfront.net/eyJidWNrZXQiOiJvdGFyZWUtcHJvZHVjdGlvbi1maWxlcyIsImtleSI6IjVjMWY5YTkwMjgxYzhjY2I1ZDc3MGNmODM1NGY1NmEwZjhhY2JkYzgiLCJlZGl0cyI6eyJyZXNpemUiOnsid2lkdGgiOjM4MCwiaGVpZ2h0IjozMDAsImZpdCI6ImNvdmVyIn19fQ==?signature=a01dc0006943ab6c6ef1c14072f50d5ab138428bf2ef8052f2560e6ec350f4e2
77330,COEUR D'OZOIR#e102267b2219,e102267b2219,A,Ozoir-la-Ferrière,COEUR D'OZOIR,False,2027T3,Les Nouveaux Constructeurs,2.6707865,48.7625225,234000,456200,60,,54 avenue du Général de Gaulle,T1|T2|T3|T4,https://dj32ymiemc11o.cloudfront.net/eyJidWNrZXQiOiJvdGFyZWUtcHJvZHVjdGlvbi1maWxlcyIsImtleSI6IjkzNjAwNzkxNGZkNjBiMGRhMDM5NTExZmM4YTM5YjQxNDZlOWVmZGEiLCJlZGl0cyI6eyJyZXNpemUiOnsid2lkdGgiOjM4MCwiaGVpZ2h0IjozMDAsImZpdCI6ImNvdmVyIn19fQ==?signature=73f454b88ac70b4cd2cb87879000de6fd7bd237b909f95107b38f2eb570cce56
77600,Residis Bussy Saint Georges#03b8e2444d4d,03b8e2444d4d,A,Bussy-Saint-Georges,Résidis Bussy Saint Georges,False,2009T1,WY,2.705782,48.838395,74400,74400,2,,39 Boulevard de Lagny,Studio,https://dj32ymiemc11o.cloudfront.net/eyJidWNrZXQiOiJvdGFyZWUtcHJvZHVjdGlvbi1maWxlcyIsImtleSI6InVwbG9hZGluZ182NjcwMGFhMjYwYjY5IiwiZWRpdHMiOnsicmVzaXplIjp7IndpZHRoIjozODAsImhlaWdodCI6MzAwLCJmaXQiOiJjb3ZlciJ9fX0=?signature=5ca6e09077e722d3800843be343f2991c134a4317d9061b37a06fad88146b7fb
77160,LE VITIS #34a4f0b9a462,34a4f0b9a462,B1,Provins,LE VITIS ,False,2026T2,PRIMAVEFA,3.3032793,48.5549821,167000,234000,5,,7 Rue de Champbenoist,T2|T3|T4,https://dj32ymiemc11o.cloudfront.net/eyJidWNrZXQiOiJvdGFyZWUtcHJvZHVjdGlvbi1maWxlcyIsImtleSI6InVwbG9hZGluZ182NjhlOWNjZjRhNWZkIiwiZWRpdHMiOnsicmVzaXplIjp7IndpZHRoIjozODAsImhlaWdodCI6MzAwLCJmaXQiOiJjb3ZlciJ9fX0=?signature=ef9e7579dbe10c5b0f58bce3fc953bbb7f164d83e5fdc75c0f4a7bc7de936a81
77350,LE CLOS DU CHATEAU#7f5c016535de,7f5c016535de,A,Le Mée-sur-Seine,LE CLOS DU CHATEAU,False,2024T4,Les Nouveaux Constructeurs,2.6216762,48.5348246,202824,343099.91,4,,571-601 AVENUE JEAN MONNET,T2|T3|T4|T5,https://dj32ymiemc11o.cloudfront.net/eyJidWNrZXQiOiJvdGFyZWUtcHJvZHVjdGlvbi1maWxlcyIsImtleSI6IjY1NmUyODA3MmNkYjA1YzlmYTI5MzU2YjFhZDk1NjNiZDZhN2UyMGIiLCJlZGl0cyI6eyJyZXNpemUiOnsid2lkdGgiOjM4MCwiaGVpZ2h0IjozMDAsImZpdCI6ImNvdmVyIn19fQ==?signature=9f5a04bf21f0385701f27111d840eb20c34994f804de0eb72e1a3e52526497cc
77600,LES JARDINS DE MONTESPAN - TR Libre#0de08f79bd65,0de08f79bd65,A,Bussy-Saint-Georges,LES JARDINS DE MONTESPAN - TR Libre,False,2025T2,Edelis,2.7281015,48.8379234,271665,394685,13,,Allée de Madame de Montespan,T1|T2|T3|T4|T4 Duplex|Villa mitoyenne T5 Duplex,https://dj32ymiemc11o.cloudfront.net/eyJidWNrZXQiOiJvdGFyZWUtcHJvZHVjdGlvbi1maWxlcyIsImtleSI6IjFjYWIwYjlhNTQ1YjI3NzVkZTczY2UwNzE2MjQ1ZWY5OWIxZjJkMjQiLCJlZGl0cyI6eyJyZXNpemUiOnsid2lkdGgiOjM4MCwiaGVpZ2h0IjozMDAsImZpdCI6ImNvdmVyIn19fQ==?signature=8528f839d6d95ca92aa22d7573c200fa03b6255ff6fe610a1b41ba6acf7da7f8
77500,VILLA DU PARC#92fa0a9fc860,92fa0a9fc860,A,Chelles,VILLA DU PARC,False,2024T4,Les Nouveaux Constructeurs,2.5851011,48.8768511,463900,463900,1,,AVENUE DE LA RÉSISTANCE,T2|T3|T4,https://dj32ymiemc11o.cloudfront.net/eyJidWNrZXQiOiJvdGFyZWUtcHJvZHVjdGlvbi1maWxlcyIsImtleSI6ImE4YzY1YTljZDMzZWU3NzFhMmU5ZDBlNjkwZjRmZjBmMTc0MDQ1MWQiLCJlZGl0cyI6eyJyZXNpemUiOnsid2lkdGgiOjM4MCwiaGVpZ2h0IjozMDAsImZpdCI6ImNvdmVyIn19fQ==?signature=eadec302503394b0362c543cee9b766aae631e08b65ece2d5768e66178bbfffe
77400,LES JARDINS DE COURTIN#578955ed0128,578955ed0128,A,Pomponne,LES JARDINS DE COURTIN,False,2025T4,Les Nouveaux Constructeurs,2.6732038,48.879295,229300,349500,15,,61-65 RUE DE PARIS,T2|T3|T4,https://dj32ymiemc11o.cloudfront.net/eyJidWNrZXQiOiJvdGFyZWUtcHJvZHVjdGlvbi1maWxlcyIsImtleSI6ImUwNDNiZjZiOWZhM2FjZjk0ZjNkYzQyMGY3OWZhYzJmZjVhZTIxNWUiLCJlZGl0cyI6eyJyZXNpemUiOnsid2lkdGgiOjM4MCwiaGVpZ2h0IjozMDAsImZpdCI6ImNvdmVyIn19fQ==?signature=abb9502ac15524cc74301226f7c570560bce46728ea9bc347cfffa00846b7382
77700,Adagio Marne-la-Vallee Val d'Europe#608fa1d7f54b,608fa1d7f54b,A,Serris,Adagio Marne-la-Vallée Val d’Europe,True,2001T4,Pierre & Sens,2.788231,48.84432,163688,238280,3,Tourism,42 cours du Danube,T2|T3,https://dj32ymiemc11o.cloudfront.net/eyJidWNrZXQiOiJvdGFyZWUtcHJvZHVjdGlvbi1maWxlcyIsImtleSI6ImFlN2Q5NzRiNmFiOWM0ZmJhZTM1ZjZkZWM2N2U3MmU1YWFjNDI0ZDAiLCJlZGl0cyI6eyJyZXNpemUiOnsid2lkdGgiOjM4MCwiaGVpZ2h0IjozMDAsImZpdCI6ImNvdmVyIn19fQ==?signature=8da400481b8dfea6bbd001179dc853dca67fd55c9fb12acc7c223f48e9badcb6
77600,RESIDENCE GREEN LIFE 3#1ac0a3718053,1ac0a3718053,A,Bussy-Saint-Georges,RÉSIDENCE GREEN LIFE 3,False,2026T4,Les Nouveaux Constructeurs,2.7087654,48.8342599,259300,542000,65,,bd Pierre Mendes France,T2|T3|T3 Duplex|T4|T4 Duplex|T5|T5 Duplex,https://dj32ymiemc11o.cloudfront.net/eyJidWNrZXQiOiJvdGFyZWUtcHJvZHVjdGlvbi1maWxlcyIsImtleSI6ImViZGM4MmVkOTg2YTAzNmJkMmVjZjI3MjNiYWY2MzlmOTdhZjJiNTAiLCJlZGl0cyI6eyJyZXNpemUiOnsid2lkdGgiOjM4MCwiaGVpZ2h0IjozMDAsImZpdCI6ImNvdmVyIn19fQ==?signature=e9c8daa4179c942f7417103ea9080e27fcc25391780fba222f9f146ae20aec85
77400,VILLAS FLORA#c1553bb0468a,c1553bb0468a,A,Saint-Thibault-des-Vignes,VILLAS FLORA,False,2026T2,Les Nouveaux Constructeurs,2.6863782,48.8685511,230700,291700,3,,6 RUE DE TORCY,T2|T3|T3 Duplex|T4|T4 Duplex,https://dj32ymiemc11o.cloudfront.net/eyJidWNrZXQiOiJvdGFyZWUtcHJvZHVjdGlvbi1maWxlcyIsImtleSI6IjljNzdmNjFiMTg1ZTc2MDc2ZjNlMjAzMDQ1ZDRiMTE5ODVmNzYxNDMiLCJlZGl0cyI6eyJyZXNpemUiOnsid2lkdGgiOjM4MCwiaGVpZ2h0IjozMDAsImZpdCI6ImNvdmVyIn19fQ==?signature=23bd475046cf1f3b47555da1c65acd7f4fb733d620f8f0f89784050c7559ac9c
77700,DOMAINE DES ORMES#d9ab0bb9b82f,d9ab0bb9b82f,A,Coupvray,DOMAINE DES ORMES,False,2025T2,Réalités Immobilier,2.7939115,48.8916245,364900,464900,4,,ZAC COUPVRAY,T2|T3|T4|T5,https://dj32ymiemc11o.cloudfront.net/eyJidWNrZXQiOiJvdGFyZWUtcHJvZHVjdGlvbi1maWxlcyIsImtleSI6IjIxZDMxZGYxMzRmMjEyNmUzNjE3MmJiNTA4YzY1NTFhNjcxZDJhMGQiLCJlZGl0cyI6eyJyZXNpemUiOnsid2lkdGgiOjM4MCwiaGVpZ2h0IjozMDAsImZpdCI6ImNvdmVyIn19fQ==?signature=b1134de8c04b844513a4a8e11e8ba083480cf4ef0e4bc3168a930766d49a861f
77160,RUELLE AUX VIGNES 1#259f88c66fe4,259f88c66fe4,B1,Provins,RUELLE AUX VIGNES 1,False,2026T2,Edouard Denis,3.3044314,48.5549874,179000,262000,22,,17 RTE DE CHALAUTRE-LA-PETIT,T1|T2|T3|T4,
77290,Cap West Compans COMPANS (Aeroport Roissy Charles De Gaulle) - 77#6f49950744cf,6f49950744cf,B1,Compans,Cap West Compans COMPANS (Aéroport Roissy Charles De Gaulle) - 77,True,,Pierre Loyers Conseil,2.6520705,48.9925709,181052.63,181052.63,1,Business,Rue Jean Mermoz,T1|T3,https://dj32ymiemc11o.cloudfront.net/eyJidWNrZXQiOiJvdGFyZWUtcHJvZHVjdGlvbi1maWxlcyIsImtleSI6IjRhODMwZmQ1ZDNlOTc1OTI5MDBjMGQ0OWQzMGY4YjI5ZDRiMzk2MzYiLCJlZGl0cyI6eyJyZXNpemUiOnsid2lkdGgiOjM4MCwiaGVpZ2h0IjozMDAsImZpdCI6ImNvdmVyIn19fQ==?signature=54895e2e0ac82bb1f396516441581a22d25c203ab7946971cbda507864935ec5
77240,Chateauform' Les Berges de Seine#697731775c13,697731775c13,A,Seine-Port,Châteauform‘ Les Berges de Seine,False,,Plusimmo - Plusinvest,2.558292,48.53687,141822.4,141822.4,1,Tourism,1 Route de Beaulieu,T3,https://dj32ymiemc11o.cloudfront.net/eyJidWNrZXQiOiJvdGFyZWUtcHJvZHVjdGlvbi1maWxlcyIsImtleSI6InVwbG9hZGluZ182NWQ4YTcxZmM2ZmFmIiwiZWRpdHMiOnsicmVzaXplIjp7IndpZHRoIjozODAsImhlaWdodCI6MzAwLCJmaXQiOiJjb3ZlciJ9fX0=?signature=23b3313c3b8bcf30b0af78b20512b4c92ba3c3fe1616f7db7ab648f56b3919e2
77450,Les Tourterelles ESBLY - 77#a7085f4d3252,a7085f4d3252,A,Esbly,Les Tourterelles ESBLY - 77,True,,Pierre Loyers Conseil,2.8118647,48.8970729,174444.65,177155.49,2,EHPAD,"2-4, allée des Tourterelles",T1,https://dj32ymiemc11o.cloudfront.net/eyJidWNrZXQiOiJvdGFyZWUtcHJvZHVjdGlvbi1maWxlcyIsImtleSI6IjViMjQyNzk4ODk5MTA1ZDVkMWE0MzhkNWY3MjU0ZGRkZGYwOTg2ODkiLCJlZGl0cyI6eyJyZXNpemUiOnsid2lkdGgiOjM4MCwiaGVpZ2h0IjozMDAsImZpdCI6ImNvdmVyIn19fQ==?signature=22937c71cfc71898c3fa4284c98d0598f6e6c6c1a59ee8d77b6d18726d4c56ce
