zip_code,name_id,id,taxArea,city,estate_name,delivered,deliveryQuarter,developer_name,longitude,latitude,availablePropertiesMinPrice,availablePropertiesMaxPrice,availablePropertiesCount,residenceType,address,typologies,image
95870,BEAUPARC#80d5bc4fe54c,80d5bc4fe54c,A,Bezons,BEAUPARC,False,2027T3,Les Nouveaux Constructeurs,2.2115004,48.9230628,234000,590200,25,,33 RUE EMILE ZOLA,Studio|T2|T3|T4|T5,https://dj32ymiemc11o.cloudfront.net/eyJidWNrZXQiOiJvdGFyZWUtcHJvZHVjdGlvbi1maWxlcyIsImtleSI6IjdkZGM1NzdhNGM5NTViZDRiZTdmMTNhM2NhZTdmNmJkMDllN2MyZDIiLCJlZGl0cyI6eyJyZXNpemUiOnsid2lkdGgiOjM4MCwiaGVpZ2h0IjozMDAsImZpdCI6ImNvdmVyIn19fQ==?signature=4112eaf6e98409d847537363adcf98fefbb1d7de9dc9c3b07563248c8ec0e73a
95870,SQUARE ART DECO#ee325192ed52,ee325192ed52,A,Bezons,SQUARE ART DECO,False,2026T2,Les Nouveaux Constructeurs,2.2108609,48.9327248,252700,405700.09,15,,6 RUE CÉCILE DUPARC,T2|T3|T4,https://dj32ymiemc11o.cloudfront.net/eyJidWNrZXQiOiJvdGFyZWUtcHJvZHVjdGlvbi1maWxlcyIsImtleSI6ImY3OWQ3NDAwNGE5YWQ0NWNkMGIxY2UwMThhNjNiNWQ1M2YxMjEwMTQiLCJlZGl0cyI6eyJyZXNpemUiOnsid2lkdGgiOjM4MCwiaGVpZ2h0IjozMDAsImZpdCI6ImNvdmVyIn19fQ==?signature=6469ee63a1f5d0ff349d43186d9f77124da716dd398a248e8b96801a40835412
95590,LA SEIGNEURIE#a5c41e87e754,a5c41e87e754,B1,Nointel,LA SEIGNEURIE,False,,Lymo,2.2780007,49.1325154,269900,335000,12,,27 rue de Mours,T1|T2|T3|T4,https://dj32ymiemc11o.cloudfront.net/eyJidWNrZXQiOiJvdGFyZWUtcHJvZHVjdGlvbi1maWxlcyIsImtleSI6IjUwYjZkMWJlZjA2YTU5NmYxMzUxZDdmNmRjZjhlZWJmZTNhOTdhNDUiLCJlZGl0cyI6eyJyZXNpemUiOnsid2lkdGgiOjM4MCwiaGVpZ2h0IjozMDAsImZpdCI6ImNvdmVyIn19fQ==?signature=537ee7ad8f425232a6241b1c2d10510d748fe39893f2caa029902baa7cd2ca4b
95240,CASTEL VIGNON 1#858ef8d8a41a,858ef8d8a41a,A,Cormeilles-en-Parisis,CASTEL VIGNON 1,False,2025T1,Nexity,2.1968237,48.9732453,284000,364000,2,,15 RUE VIGNON,T2|T3|T4,
95800,Logely Cergy#f6288484c04f,f6288484c04f,A,Cergy,Logely Cergy,True,2008T1,CELAVi pierre,2.0142008,49.0486162,68544.51,129486.85,4,Tourism,52 Bd de l'Évasion,Studio|T2,https://dj32ymiemc11o.cloudfront.net/eyJidWNrZXQiOiJvdGFyZWUtcHJvZHVjdGlvbi1maWxlcyIsImtleSI6ImIxODNmY2I3MWU0MzAxYjE4MDg2MGM5OGQ2YzhkODgzYTE5ZWU0YzgiLCJlZGl0cyI6eyJyZXNpemUiOnsid2lkdGgiOjM4MCwiaGVpZ2h0IjozMDAsImZpdCI6ImNvdmVyIn19fQ==?signature=b92289566c9ef16801433d0f5fff66389e59d1cae1a19191850ef8363ce08649
95380,LE HAMEAU DE LUVERA - LES BLEUETS - BAT A#39b1b374ae1d,39b1b374ae1d,B1,Louvres,LE HAMEAU DE LUVERA - LES BLEUETS - BAT A,False,2026T3,Pichet (RP),2.5074014,49.0444432,222000,319000,11,,LE HAMEAU DE LUVERA,T1|T2|T3|T4,
95170,L'Observatoire 3#c6d2d32a3953,c6d2d32a3953,A,Deuil-la-Barre,L'Observatoire 3,False,2026T2,Nexity,2.3121394,48.9701282,229000,593000,22,,73 AV DE LA DIVISION LECLER,T1|T2|T3|T4|T5,
95120,Les Terrasses d'Adria#161a279797c0,161a279797c0,A,Ermont,Les Terrasses d'Adria,False,2027T2,Kaufman & Broad,2.250295,48.99192,218912,599000,59,,97-103 Rue du 18 juin,T2|T3|T4|T5,https://dj32ymiemc11o.cloudfront.net/eyJidWNrZXQiOiJvdGFyZWUtcHJvZHVjdGlvbi1maWxlcyIsImtleSI6IjUyNGNjZjNlMzM2YmMwN2YwOGRkYjM2Nzc2YzU2ZTMxYjMxMmQ2MWMiLCJlZGl0cyI6eyJyZXNpemUiOnsid2lkdGgiOjM4MCwiaGVpZ2h0IjozMDAsImZpdCI6ImNvdmVyIn19fQ==?signature=d9edaef62cb3fd560ddf563887050306320de0be030475055c05f8d071df7052
95340,O FIL DE L'OISE#79763758b377,79763758b377,A,Persan,O FIL DE L'OISE,False,2024T4,E-mocom,2.2785447,49.1502774,190000.23,292322,5,,80 avenue Gaston Vermeire,T1|T2|T3,https://dj32ymiemc11o.cloudfront.net/eyJidWNrZXQiOiJvdGFyZWUtcHJvZHVjdGlvbi1maWxlcyIsImtleSI6IjI2MDZlN2ViNTM1MTcwYWVjMTU4MTgzMDdhMzMyYmEyOWUzZjFmZjgiLCJlZGl0cyI6eyJyZXNpemUiOnsid2lkdGgiOjM4MCwiaGVpZ2h0IjozMDAsImZpdCI6ImNvdmVyIn19fQ==?signature=c33f52ccad2da681828136ab56586832e1d4f5874eb1cc0395f116391477a573
95520,RESIDENCE DES IMPRESSIONNISTES#7865cf1ed72f,7865cf1ed72f,A,Osny,RESIDENCE DES IMPRESSIONNISTES,False,2026T2,E-mocom,2.0607201,49.0604518,238000,293000,3,,40 rue Aristide Briand,T2|T3,https://dj32ymiemc11o.cloudfront.net/eyJidWNrZXQiOiJvdGFyZWUtcHJvZHVjdGlvbi1maWxlcyIsImtleSI6ImRlMWU5NmI3MGM5N2UwY2E2MmRlMzE5MTg0ZWY0MTRlNGU1MmI0MDYiLCJlZGl0cyI6eyJyZXNpemUiOnsid2lkdGgiOjM4MCwiaGVpZ2h0IjozMDAsImZpdCI6ImNvdmVyIn19fQ==?signature=4d87a0cb3a27ae61aaf183b01f6ea983eda61c7f56dea87fee79533c7df4ba07
95130,Les terrasses de Grangeret#e62dc65277f7,e62dc65277f7,A,Le Plessis-Bouchard,Les terrasses de Grangeret,False,2026T2,Kaufman & Broad,2.2363773,49.0033524,249000,379000,6,,21 bis à 27 rue Grangeret de la Grange,T1|T2|T3|T4,https://dj32ymiemc11o.cloudfront.net/eyJidWNrZXQiOiJvdGFyZWUtcHJvZHVjdGlvbi1maWxlcyIsImtleSI6IjEwM2MzYjRlNDY1YWVlNjEwYzBhZTI5YjQ2OGZmNTg3OTU4N2ViOGEiLCJlZGl0cyI6eyJyZXNpemUiOnsid2lkdGgiOjM4MCwiaGVpZ2h0IjozMDAsImZpdCI6ImNvdmVyIn19fQ==?signature=e1c174ff7bd7cc6afda67132fbf46f44424fa2ae40c2e54a033098e8a481cf23
95370,LES HAUTS DU CHATEAU#fb64cfb104f0,fb64cfb104f0,A,Montigny-lès-Cormeilles,LES HAUTS DU CHATEAU,False,2026T1,Les Nouveaux Constructeurs,2.1904265,48.9878303,222300,360900,30,,8 BIS GRANDE RUE,Studio|T2|T3|T4,https://dj32ymiemc11o.cloudfront.net/eyJidWNrZXQiOiJvdGFyZWUtcHJvZHVjdGlvbi1maWxlcyIsImtleSI6IjE3N2MyMjM3YmRiMGEwOTlkN2M2ZWNkYmQ5MWRlZjNkMmQ1NTk1YmQiLCJlZGl0cyI6eyJyZXNpemUiOnsid2lkdGgiOjM4MCwiaGVpZ2h0IjozMDAsImZpdCI6ImNvdmVyIn19fQ==?signature=9ec748aa7795627bb7220c596ede4a9dd3e4289865cea3b1a80ade7ee6b00b97
95580,LE CLOS DU BOIS 1#6e2bc64ede7c,6e2bc64ede7c,A,Andilly,LE CLOS DU BOIS 1,False,2025T3,Nexity,2.3136374,49.0079451,413000,453000,17,,134 AV . DE DOMONT,T4|T5,
95670,Le Haras#039d2fb51687,039d2fb51687,B1,Marly-la-Ville,Le Haras,False,2025T1,Foncim,2.515463,49.076731,214900,417900,20,,Rue du Brelan et chemin des Peupliers,T1|T2|T3|T4|T5,https://dj32ymiemc11o.cloudfront.net/eyJidWNrZXQiOiJvdGFyZWUtcHJvZHVjdGlvbi1maWxlcyIsImtleSI6ImI5ZmI4OTg3ZjZjZjRhZTU2ZGIxOTc3ODM0M2JjZGUzNTVjOTVkYTMiLCJlZGl0cyI6eyJyZXNpemUiOnsid2lkdGgiOjM4MCwiaGVpZ2h0IjozMDAsImZpdCI6ImNvdmVyIn19fQ==?signature=c71880893324a6476704d916119ed025f47600a5fd7473be684ab862ad94ed0e
95800,VILLE NATURE 30#4eb9f76922de,4eb9f76922de,A,Cergy,VILLE NATURE 30,True,2024T2,Nexity,2.0735826,49.0416089,330000,330000,1,,18 BLD DE LA PAIX,T1|T2|T3|T4|T5,https://dj32ymiemc11o.cloudfront.net/eyJidWNrZXQiOiJvdGFyZWUtcHJvZHVjdGlvbi1maWxlcyIsImtleSI6ImIzMzBmZDk5MTE1OTYzMmMyNzk2MTYwNzE2OWU3OTlkZjNjM2RhZDkiLCJlZGl0cyI6eyJyZXNpemUiOnsid2lkdGgiOjM4MCwiaGVpZ2h0IjozMDAsImZpdCI6ImNvdmVyIn19fQ==?signature=e3e1dcc73f2d5a56940d601751057d0cdffdba71318233459f6b1f1ef9e3f0f7
95000,Vivarea#d33d6c749717,d33d6c749717,A,Cergy,Vivarea,False,2027T1,Crédit Agricole Immobilier,2.0522936,49.0481431,152095.83,349490,20,,ZAC des Linandes / ilot G1,T1|T2|T3|T3 Duplex|T4|T4 Duplex|T5,https://dj32ymiemc11o.cloudfront.net/eyJidWNrZXQiOiJvdGFyZWUtcHJvZHVjdGlvbi1maWxlcyIsImtleSI6IjRhMDc1MjE0OWU4ZTJlYjkxYzU0MmJmZmM1ZmE4YjRlYjZmYTVlOWMiLCJlZGl0cyI6eyJyZXNpemUiOnsid2lkdGgiOjM4MCwiaGVpZ2h0IjozMDAsImZpdCI6ImNvdmVyIn19fQ==?signature=f4dfe744bea1d22bfda56f99d143343c5296d63372b3266d0746c89819c02eb0
95100,LES CANOTIERS 10#3d3b7520fede,3d3b7520fede,A,Argenteuil,LES CANOTIERS 10,False,2025T1,Nexity,2.2333707,48.9456138,205681.66,228911.66,4,,AV MAURICE UTRILLO,T2|T3,
95000,Le Dahlia#87f4324f8ed6,87f4324f8ed6,A,Cergy,Le Dahlia,False,2026T2,Inovefa,2.0339902,49.0507616,149018.75,379000,14,,Rue du cloître,T1|T2|T3|T4|T5,
95600,Le Clos des Lilas EAUBONNE - 95#204a5630395d,204a5630395d,A,Eaubonne,Le Clos des Lilas EAUBONNE - 95,True,,Pierre Loyers Conseil,2.285712,48.9807647,130769.23,130769.23,1,EHPAD,130 Boulevard de la République,T1,https://dj32ymiemc11o.cloudfront.net/eyJidWNrZXQiOiJvdGFyZWUtcHJvZHVjdGlvbi1maWxlcyIsImtleSI6ImNlMjdiOTMxM2JjYjE3OTMzODdlZmM0NjYxYWM3MmY1NDVlNWFlMDAiLCJlZGl0cyI6eyJyZXNpemUiOnsid2lkdGgiOjM4MCwiaGVpZ2h0IjozMDAsImZpdCI6ImNvdmVyIn19fQ==?signature=1aa041610f6f4ff888e340f4e88e82528adfd8572684c7c381a7535f7ac48ee8
95570,Le Mesnil - Colisee#5487f9705eaf,5487f9705eaf,A,Bouffémont,Le Mesnil - Colisée,False,2010T1,Plusimmo - Plusinvest,2.298085,49.046657,139192,139192,1,,5 Rue Pasteur,Chambre,https://dj32ymiemc11o.cloudfront.net/eyJidWNrZXQiOiJvdGFyZWUtcHJvZHVjdGlvbi1maWxlcyIsImtleSI6InVwbG9hZGluZ182NjE2OGNkZTNkNjFmIiwiZWRpdHMiOnsicmVzaXplIjp7IndpZHRoIjozODAsImhlaWdodCI6MzAwLCJmaXQiOiJjb3ZlciJ9fX0=?signature=37ff4aefd2a4b74f8120d819a2c7c6551bc07035b426ddde7a8914a25468bc7b
95150,Les Allees Sainte-Honorine 2#b02cd808a962,b02cd808a962,A,Taverny,Les Allées Sainte-Honorine 2,False,2025T4,Kaufman & Broad,2.2080488,49.0088795,233858,270000,3,,RUE DES LILAS,T1|T2|T3|T4,https://dj32ymiemc11o.cloudfront.net/eyJidWNrZXQiOiJvdGFyZWUtcHJvZHVjdGlvbi1maWxlcyIsImtleSI6Ijk2ODc0NTZlMmI4ZmMwMjY0NWU1ZTBiZWE0OWIxYjAwN2QyZmM0OTUiLCJlZGl0cyI6eyJyZXNpemUiOnsid2lkdGgiOjM4MCwiaGVpZ2h0IjozMDAsImZpdCI6ImNvdmVyIn19fQ==?signature=45a7ae40c1bfe3a5e2a7f0f41356010ba20d79e507b94d10839f421edd18bc21
95300,Les Jardins D'Ennery#2f017c709d06,2f017c709d06,B1,Ennery,Les Jardins D'Ennery,True,2011T4,Consultim,2.1054001,49.0826914,151850.08,151850.08,1,,Route de Livilliers,Chambre simple,
95870,LES JARDINS DE NEIL#4cbfaf582619,4cbfaf582619,A,Bezons,LES JARDINS DE NEIL,False,2027T2,Woodeum X Pitch Immo,2.2231846,48.9328164,141008,377630.33,33,,1 RUE DE L'AGRICULTURE,T1|T2|T3,https://dj32ymiemc11o.cloudfront.net/eyJidWNrZXQiOiJvdGFyZWUtcHJvZHVjdGlvbi1maWxlcyIsImtleSI6ImZlOWVjNDM4NThhNTYxNDM4NDA0ZWM2MWEyZTllZDVlN2QwZThkYmIiLCJlZGl0cyI6eyJyZXNpemUiOnsid2lkdGgiOjM4MCwiaGVpZ2h0IjozMDAsImZpdCI6ImNvdmVyIn19fQ==?signature=dc841132fdf6488b6a3dfa1a2642356a9f8e5969e61be3098874fe577b219f44
95000,L'ISARA - BAT 1#be4d91520e6c,be4d91520e6c,A,Cergy,L’ISARA - BAT 1,False,2026T2,Pichet (Investissement),2.0665887,49.0330765,208500,283000,15,,L’ISARA,T2|T3,https://dj32ymiemc11o.cloudfront.net/eyJidWNrZXQiOiJvdGFyZWUtcHJvZHVjdGlvbi1maWxlcyIsImtleSI6IjM5MDE2MmZkZDRiYTEwZGVkMDdkZWMzMmMxZmZmNTQxNzNhODE2ZTAiLCJlZGl0cyI6eyJyZXNpemUiOnsid2lkdGgiOjM4MCwiaGVpZ2h0IjozMDAsImZpdCI6ImNvdmVyIn19fQ==?signature=39b2087f18b5c39dfa5717922837297ee2bb8d59b2e69586ece28a6ad5bdd588
95380,Le Quartier du Vertpuits#75a20b5f0cdd,75a20b5f0cdd,B1,Puiseux-en-France,Le Quartier du Vertpuits,False,2026T1,Crédit Agricole Immobilier,2.4995091,49.0627909,209000,441200,53,,1 Route de Marly / ZAC DERRIERE LES BOIS,T2|T3|T4|T5,https://dj32ymiemc11o.cloudfront.net/eyJidWNrZXQiOiJvdGFyZWUtcHJvZHVjdGlvbi1maWxlcyIsImtleSI6IjY0YzUyYzBiNjU4YWMyNzQwZGYwZmE0MTZmMzJhYjQ4MzUwYzUwMmEiLCJlZGl0cyI6eyJyZXNpemUiOnsid2lkdGgiOjM4MCwiaGVpZ2h0IjozMDAsImZpdCI6ImNvdmVyIn19fQ==?signature=97db9a2fd16cdfc32641b6afea2238fe81c7b72cf3a7bd9144deb703e6fe35fd
95100,LES TERRASSES D'ARGENTEUIL#ab4a6f00f850,ab4a6f00f850,A,Argenteuil,LES TERRASSES D'ARGENTEUIL,False,2025T1,iSelection,2.2538124,48.9489793,265525,265525,1,,2-4 Boulevard Jean Allemane,T1|T2|T3|T4,
95800,Studea Cergy Universite 2#f48668d3a009,f48668d3a009,A,Cergy,Studéa Cergy Université 2,True,2008T3,Consultim,2.0391042,49.0521853,87334.96,88370.96,2,Student,42 avenue des genottes,Studio,
95300,Appartement Studio - 23.24 m2 - Pontoise#1f9ccdaf88aa,1f9ccdaf88aa,A,Pontoise,Appartement Studio - 23.24 m2 - Pontoise,True,2024T2,Masteos,2.101931,49.049737,125800,125800,1,,Rue du Bas Bord d'Eau,Studio,https://dj32ymiemc11o.cloudfront.net/eyJidWNrZXQiOiJvdGFyZWUtcHJvZHVjdGlvbi1maWxlcyIsImtleSI6Ijg2YjM4YTE0NTAyMzRhN2VlMzI5ZDQ2YWMxMWIxZGE1NTdmMDRmYTYiLCJlZGl0cyI6eyJyZXNpemUiOnsid2lkdGgiOjM4MCwiaGVpZ2h0IjozMDAsImZpdCI6ImNvdmVyIn19fQ==?signature=6e7817b0f24e5725aa3e44eeefd9ab9849bef26f15f58bff802fcd39afbe2445
95380,"LE HAMEAU DE LUVERA - PAQUERETTE - N, O et P#f127a8e4e32c",f127a8e4e32c,B1,Louvres,"LE HAMEAU DE LUVERA - PAQUERETTE - N, O et P",False,2026T2,Pichet (RP),2.5074014,49.0444432,349000,457000,16,,LE HAMEAU DE LUVERA,Maison T4|Maison T5|Maison T6,
95400,VILLA GINKGO#e8a59f97a766,e8a59f97a766,A,Villiers-le-Bel,VILLA GINKGO,False,2025T3,Les Nouveaux Constructeurs,2.3921932,49.0054202,192801,252799.62,6,,8 RUE DU PRESSOIR,T1|T2|T3,https://dj32ymiemc11o.cloudfront.net/eyJidWNrZXQiOiJvdGFyZWUtcHJvZHVjdGlvbi1maWxlcyIsImtleSI6IjE4NzYzNzAwYWE1ODE3NTQzYTk2YjU1ZTA5NTA1NThiNThlZGQ1MzEiLCJlZGl0cyI6eyJyZXNpemUiOnsid2lkdGgiOjM4MCwiaGVpZ2h0IjozMDAsImZpdCI6ImNvdmVyIn19fQ==?signature=f3f3c5a5c709d1979a0fb01c11b656a742dec900b1b3c20873c82ba2f4206bae
95110,LES VILLAS DU BUISSON#71e7c15caf82,71e7c15caf82,A,Sannois,LES VILLAS DU BUISSON,False,2026T1,NACA IMMOBILIER,2.2700206,48.9734012,578000,698000,8,,4 Rue de la Liberté,T5,https://dj32ymiemc11o.cloudfront.net/eyJidWNrZXQiOiJvdGFyZWUtcHJvZHVjdGlvbi1maWxlcyIsImtleSI6InVwbG9hZGluZ182NmU3MjNjMzUyMTUzIiwiZWRpdHMiOnsicmVzaXplIjp7IndpZHRoIjozODAsImhlaWdodCI6MzAwLCJmaXQiOiJjb3ZlciJ9fX0=?signature=859ef241f4b97092f4fc6d9fedaf00a55f17f88f18a614fe2fcae9f86b98c4dc
95300,Residence Pissarro#39000f125c1c,39000f125c1c,A,Pontoise,Résidence Pissarro,False,2024T4,Marignan,2.1041248,49.0929069,245000,245000,1,,1 Rue des Escadrons,T2|T3|T4|T4 Duplex|T5,https://dj32ymiemc11o.cloudfront.net/eyJidWNrZXQiOiJvdGFyZWUtcHJvZHVjdGlvbi1maWxlcyIsImtleSI6IjM2NmY1MmIyNTg1ZTNhOWZiZDE0MjE1YWJmN2E0NWY0YmUyOTFlNjkiLCJlZGl0cyI6eyJyZXNpemUiOnsid2lkdGgiOjM4MCwiaGVpZ2h0IjozMDAsImZpdCI6ImNvdmVyIn19fQ==?signature=59573b10bb73219831e0b58c56ae49e4d3472578dac70851cc5c69a4fa7058b3
95520,"Les Templitudes ""La Roseraie""#0bb7743678a4",0bb7743678a4,A,Osny,"Les Templitudes ""La Roseraie""",True,2012T4,SAS Medicis,2.0736309,49.0750176,182290,182290,1,,7 rue Paul Emile Victor,T2,https://dj32ymiemc11o.cloudfront.net/eyJidWNrZXQiOiJvdGFyZWUtcHJvZHVjdGlvbi1maWxlcyIsImtleSI6ImMxMDU3N2Y2NWYwMzkxMDZjNmQzNTQ3ZDBiMTRhYmNjYTViODgwMTciLCJlZGl0cyI6eyJyZXNpemUiOnsid2lkdGgiOjM4MCwiaGVpZ2h0IjozMDAsImZpdCI6ImNvdmVyIn19fQ==?signature=d6723154e487b704ab9b7981bfc4704695f76273cd46d69cdfe2993b33d871b6
95570,CASTANEA#e9cbf42269c0,e9cbf42269c0,A,Bouffémont,CASTANEA,False,2026T2,Domitys Invest,2.29523,49.043562,171000,315000,46,Senior,39 rue Léon Giraudeau,T1|T2|T3,https://dj32ymiemc11o.cloudfront.net/eyJidWNrZXQiOiJvdGFyZWUtcHJvZHVjdGlvbi1maWxlcyIsImtleSI6IjhkZDk3NDI4ZjRjMGI4OGFhMzBiZGFmYjZiOTExZDA4MjIxNTRkMDkiLCJlZGl0cyI6eyJyZXNpemUiOnsid2lkdGgiOjM4MCwiaGVpZ2h0IjozMDAsImZpdCI6ImNvdmVyIn19fQ==?signature=565890f803e2700f2e3b2f918afe2a339b315f1bfe49dedca83688a10d58b3d5
95320,Les Villas de Flore#582a1c8edfac,582a1c8edfac,A,Saint-Leu-la-Forêt,Les Villas de Flore,False,2024T4,Kaufman & Broad,2.2521078,49.0080835,628000,654000,2,,Rue des grandes Tannières,T4|T5,https://dj32ymiemc11o.cloudfront.net/eyJidWNrZXQiOiJvdGFyZWUtcHJvZHVjdGlvbi1maWxlcyIsImtleSI6IjdjZjk2NTNiNTM4N2EyMDgyZjc2ZWFkMTZjYjE3MGUxZTIyOGVjMmQiLCJlZGl0cyI6eyJyZXNpemUiOnsid2lkdGgiOjM4MCwiaGVpZ2h0IjozMDAsImZpdCI6ImNvdmVyIn19fQ==?signature=19bfc088624b9021a7a64b463d7f71795e2d5dbb4c9fc6bd5fe2b8cef14a782a
95240,L'ARCHIPEL#8f9b7403b63f,8f9b7403b63f,A,Cormeilles-en-Parisis,L'ARCHIPEL,False,2025T2,Cogedim,2.2021525,48.9749352,209000,785000,16,,SITE LAFARGE,Studio alcôve|T1|T2|T2 alcôve|T2/T3|T3|T3 Duplex|T3 alcôve|T4|T4 alcôve|T5|T5 Duplex|T6 Duplex,
95000,L'ISARA - BAT 2#02eb79c97ba6,02eb79c97ba6,A,Cergy,L’ISARA - BAT 2,False,2026T4,Pichet (RP),2.065502,49.04656,188142,370000,17,,L’ISARA,T2|T3|T4|T5 Duplex,
95570,Le Domaine du Parc - Appartements#ea7165b2ecbb,ea7165b2ecbb,B1,Moisselles,Le Domaine du Parc - Appartements,False,2025T1,Kaufman & Broad,2.3368299,49.0474425,237000,237000,1,,13 Rue de Paris,T2|T3|T4,https://dj32ymiemc11o.cloudfront.net/eyJidWNrZXQiOiJvdGFyZWUtcHJvZHVjdGlvbi1maWxlcyIsImtleSI6Ijg0NzdiYmZiYjM2M2VjOWQ1YWQwYWI5MjljZjgwY2E5NTE4MjJlYzMiLCJlZGl0cyI6eyJyZXNpemUiOnsid2lkdGgiOjM4MCwiaGVpZ2h0IjozMDAsImZpdCI6ImNvdmVyIn19fQ==?signature=da71d803582df6ce34ae9cbde044a32f7c34e06932367ddf697b78b6277175eb
95100,LES JARDINS BALZAC 2#f198c1257684,f198c1257684,A,Argenteuil,LES JARDINS BALZAC 2,True,2024T2,Nexity,2.2333707,48.9456138,394000,448151.65,1,,157 AV . MAURICE UTRILLO,T1|T2|T3|T4|T5,
95870,NOUVELLE SEINE#f8e475cd8e07,f8e475cd8e07,A,Bezons,NOUVELLE SEINE,False,2025T3,Valority Partners,2.216996,48.9261666,136950,141650,36,Student,72 rue de Pontoise,T1|T1 PMR|T3,
95610,Osmose#f0bee2813f68,f0bee2813f68,A,Éragny,Osmose,False,2026T1,Sogeprom,2.1007707,49.0328524,227000,328000,9,,25-33 avenue Roger Guichard,T1|T2|T3|T4|T5,https://dj32ymiemc11o.cloudfront.net/eyJidWNrZXQiOiJvdGFyZWUtcHJvZHVjdGlvbi1maWxlcyIsImtleSI6IjdiNWUwOWI1NzViNDg4NDAzMTNkYjJkODNmYTk5ZTNjZTE5ZDJjNzgiLCJlZGl0cyI6eyJyZXNpemUiOnsid2lkdGgiOjM4MCwiaGVpZ2h0IjozMDAsImZpdCI6ImNvdmVyIn19fQ==?signature=cb922722334a89e2ade782731a5156a8a2c556324ba6fd199cf4979549928cef
95150,Les Jardins de Vaucelles#d8b633e25cb4,d8b633e25cb4,A,Taverny,Les Jardins de Vaucelles,False,2025T2,Inovefa,2.2367963,49.0215496,286620,392700,10,,7 rue de Pais,T2|T3|T4,
95000,L'ISARA - BAT 1#1423b65a8e73,1423b65a8e73,A,Cergy,L’ISARA - BAT 1,False,2026T2,Pichet (RP),2.065502,49.04656,238694,342000,10,,L’ISARA,T3|T4|T5 Duplex|T6 Duplex,https://dj32ymiemc11o.cloudfront.net/eyJidWNrZXQiOiJvdGFyZWUtcHJvZHVjdGlvbi1maWxlcyIsImtleSI6IjhlODhhNzA2ZTU1MDlmMDAwOTJiMWJmYzdmMzE2MjUzMjNjMzM0OTEiLCJlZGl0cyI6eyJyZXNpemUiOnsid2lkdGgiOjM4MCwiaGVpZ2h0IjozMDAsImZpdCI6ImNvdmVyIn19fQ==?signature=2ccf554078f658a8e924b3fea1c9a51a50c39a7d97eeae61455568841ba8c517
95620,Orpea - Parmain - Quai des Brumes - 66#f6c1275edaba,f6c1275edaba,A,Parmain,Orpéa - Parmain - Quai des Brumes - 66,False,,Attentif LMNP,2.2069623,49.1175167,155940,155940,1,EHPAD,44 Rue du Maréchal Foch,T1,
95580,LE CLOS DU BOIS 2 5#6fb04aeb5aa2,6fb04aeb5aa2,A,Andilly,LE CLOS DU BOIS 2 5,False,2027T4,Nexity,2.3133452,49.007985,399000,453000,21,,1 RTE DE BERCHÈRE,T5,
95870,CONFIDENCE#dd013a3fc378,dd013a3fc378,A,Bezons,CONFIDENCE,False,2024T4,Cogedim,2.2219335,48.9294539,285000,285000,1,,23 RUE VICTOR HUGO,Studio|Studio alcôve|T2|T2 alcôve|T3|T3 alcôve|T4,
95380,LE HAMEAU DE LUVERA - IRIS -BAT I#3be4810c0ed0,3be4810c0ed0,B1,Louvres,LE HAMEAU DE LUVERA - IRIS -BAT I,False,2025T4,Pichet (Investissement),2.5103092,49.0574746,211500,314000,6,,Rue des Grands Champs,T1|T2|T3|T4,https://dj32ymiemc11o.cloudfront.net/eyJidWNrZXQiOiJvdGFyZWUtcHJvZHVjdGlvbi1maWxlcyIsImtleSI6IjZiNjQwZTJkYTZlN2E4YjVkYjQ0MWFlMTg1NDJkZWVjZWE2ODc0YjIiLCJlZGl0cyI6eyJyZXNpemUiOnsid2lkdGgiOjM4MCwiaGVpZ2h0IjozMDAsImZpdCI6ImNvdmVyIn19fQ==?signature=b29a4429d69bc5ba4a5eb48a87864151b6e19c804168bd94370beca8c1e8b5af
95100,PASSAGE DE LUTECE 2#f9c123421e6f,f9c123421e6f,A,Argenteuil,PASSAGE DE LUTECE 2,False,2026T1,Nexity,2.2064216,48.9427842,292000,346919.42,3,,43 RTE DE PONTOISE,T1|T2|T3|T4,
95660,Les Jardins Campania - Demembrement 12 ans#5804a3c850e3,5804a3c850e3,A,Champagne-sur-Oise,Les Jardins Campania - Démembrement 12 ans,False,2025T1,La maison du démembrement,2.2336982,49.1366837,304316,409126,20,,37-43 rue du Général Corbineau,T4 Duplex|T4- Duplex|T5 Duplex|T5- Duplex|T5- Triplex|T6- Duplex,https://dj32ymiemc11o.cloudfront.net/eyJidWNrZXQiOiJvdGFyZWUtcHJvZHVjdGlvbi1maWxlcyIsImtleSI6IjAyNmVjY2U0ZDlmZTIyNDRlZWQwMjhhZDYzMjgxM2YyYzkyN2VjMDkiLCJlZGl0cyI6eyJyZXNpemUiOnsid2lkdGgiOjM4MCwiaGVpZ2h0IjozMDAsImZpdCI6ImNvdmVyIn19fQ==?signature=fa3e096a792611479faf96911a7b8ad503c71cdda0a4648e81bf862e09c67fc7
95380,LE BOREAL#03546fbf6b54,03546fbf6b54,B1,Louvres,LE BOREAL,True,2024T1,Green City,2.5082975,49.0550643,399900,399900,1,,Rue Paul Emile Victor,T1|T1 Bis|T2|T3|T3 Bis|T4|T4 Duplex|T5|T5 Duplex,
95380,LE TIVOLI#ed38ffcf3828,ed38ffcf3828,B1,Louvres,LE TIVOLI,False,2025T4,Green City,2.5020318,49.052437,268900,335400,9,,"Avenue de Copenhague, avenue de l'Europe, rue de la moisson, avenue Charles de Gaulle",T1 Bis|T2|T2 Bis|T3|T4|T4 Duplex,
95700,City Residence PARIS CDG AIRPORT#9af3a2d35dc0,9af3a2d35dc0,A,Roissy-en-France,City Résidence PARIS CDG AIRPORT,False,2024T1,WY,2.513948,48.99855,107000,107000,1,,14 Allee des Vergers,T2,https://dj32ymiemc11o.cloudfront.net/eyJidWNrZXQiOiJvdGFyZWUtcHJvZHVjdGlvbi1maWxlcyIsImtleSI6InVwbG9hZGluZ182NTlmZjU5ODFhMWE1IiwiZWRpdHMiOnsicmVzaXplIjp7IndpZHRoIjozODAsImhlaWdodCI6MzAwLCJmaXQiOiJjb3ZlciJ9fX0=?signature=60930fa52383e8090edfb4a1dbb2925d5de92d767c9c7a93004fa5964fc5d941
95870,COUPOLE ART DECO#0d5598aa654a,0d5598aa654a,A,Bezons,COUPOLE ART DECO,False,2025T4,Green City,2.2158805,48.9268961,362900,362900,1,,55-59 rue de Pontoise et 2-8-10-12 rue Georges Dupont,Local commercial|T1|T1 Bis|T2|T3|T4,
95400,HARMONIA TRANCHE 2#0106d227c062,0106d227c062,A,Villiers-le-Bel,HARMONIA TRANCHE 2,False,,iSelection,2.387981,49.007379,212846.25,242100,1,,8-10 rue des Gélinières,T1|T2|T3,
95380,LE HAMEAU DE LUVERA - LES BLEUETS - BAT B#e4660943d79b,e4660943d79b,B1,Louvres,LE HAMEAU DE LUVERA - LES BLEUETS - BAT B,False,2026T3,Pichet (Investissement),2.5074014,49.0444432,165000,272500,15,,LE HAMEAU DE LUVERA,T1|T2|T3|T4,
95660,Les Jardins Campania - Demembrement 15 ans#f0ee18773d97,f0ee18773d97,A,Champagne-sur-Oise,Les Jardins Campania - Démembrement 15 ans,False,2025T1,La maison du démembrement,2.2336982,49.1366837,260031,353074,19,,37-43 rue du Général Corbineau,T4 Duplex|T4- Duplex|T5 Duplex|T5- Duplex|T5- Triplex|T6- Duplex,https://dj32ymiemc11o.cloudfront.net/eyJidWNrZXQiOiJvdGFyZWUtcHJvZHVjdGlvbi1maWxlcyIsImtleSI6IjMyZTQ2MDY3ODBjMjk4MmYzODBhMzYzZjYwMjQ1Y2JmZGEzNTFiNjgiLCJlZGl0cyI6eyJyZXNpemUiOnsid2lkdGgiOjM4MCwiaGVpZ2h0IjozMDAsImZpdCI6ImNvdmVyIn19fQ==?signature=0a6571c9e9104b54d88a0ea57e5177a86ca06c686e5baa687408a7838e27401d
95000,Appartement Studio - 13 m2 - Cergy#89ec0c157517,89ec0c157517,A,Cergy,Appartement Studio - 13 m2 - Cergy,True,2024T2,Masteos,2.0733132,49.0361471,92000,92000,1,,Rue du Chemin Dupuis Vert,Studio,https://dj32ymiemc11o.cloudfront.net/eyJidWNrZXQiOiJvdGFyZWUtcHJvZHVjdGlvbi1maWxlcyIsImtleSI6IjM1ZmQ1N2ExNTZjNmExMGMyOGMyN2VkYzM2NWQ2ZTc2OThlNTA4MDMiLCJlZGl0cyI6eyJyZXNpemUiOnsid2lkdGgiOjM4MCwiaGVpZ2h0IjozMDAsImZpdCI6ImNvdmVyIn19fQ==?signature=abda70c0ace22cff9cb4cf3723059f0ae01c103cb10d89ffdccc67751760ede5
95240,Esprit Citadin#97708e8aba22,97708e8aba22,A,Cormeilles-en-Parisis,Esprit Citadin,False,2025T1,Kaufman & Broad,2.1950838,48.9690027,267000,376000,10,,8 Boulevard Joffre,T2|T3|T4,https://dj32ymiemc11o.cloudfront.net/eyJidWNrZXQiOiJvdGFyZWUtcHJvZHVjdGlvbi1maWxlcyIsImtleSI6IjY0ZjcxZjAxMjA4MWYyYTNhODg0MmQzMmM5ZTQwMTE3OTljZTgwOTYiLCJlZGl0cyI6eyJyZXNpemUiOnsid2lkdGgiOjM4MCwiaGVpZ2h0IjozMDAsImZpdCI6ImNvdmVyIn19fQ==?signature=72a08b2bf25dc1680473e185b5c40fb7c0ff4b5df67203d13c44811041d414dd
95240,L'ESTUAIRE#abcaa7cbeebc,abcaa7cbeebc,A,Cormeilles-en-Parisis,L'ESTUAIRE,False,2024T4,Cogedim,2.1795372,48.9569291,236000,512000,14,,ROUTE DE SEINE,Studio alcôve|T1|T2|T2 alcôve|T3|T3 alcôve|T4|T5,
95000,Appartement T5 - 95.29 m2 - Cergy#742bfeaa7945,742bfeaa7945,A,Cergy,Appartement T5 - 95.29 m2 - Cergy,True,2024T2,Masteos,2.0700169,49.0324155,270820,270820,1,,Rue François Villon,T5,https://dj32ymiemc11o.cloudfront.net/eyJidWNrZXQiOiJvdGFyZWUtcHJvZHVjdGlvbi1maWxlcyIsImtleSI6IjVlYjM2YzFjNGQ1NWZiYmU2YjNhMDhmM2Y4ZTgyMGZmYTg3MWMxNmQiLCJlZGl0cyI6eyJyZXNpemUiOnsid2lkdGgiOjM4MCwiaGVpZ2h0IjozMDAsImZpdCI6ImNvdmVyIn19fQ==?signature=92a90f5e649db169b3a5ef9f7fb9943bfbe98cba62399554ac60ea660117ea42
95870,LES BALCONS DE ZOLA#5705fb1f75f7,5705fb1f75f7,A,Bezons,LES BALCONS DE ZOLA,False,2026T4,Les Nouveaux Constructeurs,2.2116323,48.9240637,246200,414100,41,,46-59 RUE EMILE ZOLA,T1|T2|T3|T4,https://dj32ymiemc11o.cloudfront.net/eyJidWNrZXQiOiJvdGFyZWUtcHJvZHVjdGlvbi1maWxlcyIsImtleSI6Ijg5ODQ0YzkzYTYwNWM4MWNiMmY0NmM1NTBlOTlhMjMyMzlhMjFiMGIiLCJlZGl0cyI6eyJyZXNpemUiOnsid2lkdGgiOjM4MCwiaGVpZ2h0IjozMDAsImZpdCI6ImNvdmVyIn19fQ==?signature=6ceeb6156bee8e949e5094689634d8a9c4f13a1ea5d190d57a8a697c2db77307
95400,LE BEL AIR#a394c65d5122,a394c65d5122,A,Villiers-le-Bel,LE BEL AIR,False,2024T4,Catella,2.3840999,49.0058239,185500,267299,3,,12 rue du Docteur Rampont,T2|T3|T4|studio,https://dj32ymiemc11o.cloudfront.net/eyJidWNrZXQiOiJvdGFyZWUtcHJvZHVjdGlvbi1maWxlcyIsImtleSI6IjdkY2ZjZDE1NGE4OGQ2ZTk1NGU5YmJlNjNiYmJjN2YwNjkwMTQ0YzkiLCJlZGl0cyI6eyJyZXNpemUiOnsid2lkdGgiOjM4MCwiaGVpZ2h0IjozMDAsImZpdCI6ImNvdmVyIn19fQ==?signature=e2638f24430addd5e237968c0cd6b4ea1b98da972d9804001df9229048357a5b
95100,Domidep - Argenteuil - Les pensees#17c32230b5fa,17c32230b5fa,A,Argenteuil,Domidep - Argenteuil - Les pensées,False,,Attentif LMNP,2.2422989,48.9479945,174684,174684,1,EHPAD,102 Rue Antonin Georges Belin,T1,
95800,Residence etudiante Studea Cergy Universite 1#c412c2222311,c412c2222311,A,Cergy,Résidence étudiante Studéa Cergy Université 1,True,,iSelection,2.0387843,49.0514017,85600,85600,1,Student,"14 Avenue du Centaure, 95800 Cergy",Studio,
95000,Appartement Studio - 52 m2 - Cergy#425b7d722a95,425b7d722a95,A,Cergy,Appartement Studio - 52 m2 - Cergy,True,2024T2,Masteos,2.0700169,49.0324155,225800,225800,1,,Rue François Villon,Studio,https://dj32ymiemc11o.cloudfront.net/eyJidWNrZXQiOiJvdGFyZWUtcHJvZHVjdGlvbi1maWxlcyIsImtleSI6Ijg0Y2M1M2E0YzI4ODk3YmU2MDBiMTEwMjJmNDc3MWRlODhkMzVkMDAiLCJlZGl0cyI6eyJyZXNpemUiOnsid2lkdGgiOjM4MCwiaGVpZ2h0IjozMDAsImZpdCI6ImNvdmVyIn19fQ==?signature=1c9a32b0e691d9b11fff80655501689fef6c2bd3fd5d1200c2eab337e53a319e
95330,Le Clos Longpre#64c45ec9e95d,64c45ec9e95d,A,Domont,Le Clos Longpré,False,2026T4,La Référence Pierre,2.3286753,49.0256294,323000,323000,1,,6 rue Alphonse Provost,Studio|T1|T1 Bis|T2|T3|T4,https://dj32ymiemc11o.cloudfront.net/eyJidWNrZXQiOiJvdGFyZWUtcHJvZHVjdGlvbi1maWxlcyIsImtleSI6IjJlNzdjZDRmMThjNmNmYWE4NWUyZTEyZGVhNTE3MGMzYTkyZmEzYzciLCJlZGl0cyI6eyJyZXNpemUiOnsid2lkdGgiOjM4MCwiaGVpZ2h0IjozMDAsImZpdCI6ImNvdmVyIn19fQ==?signature=70eeff0f0d4e92de4d77885885d437ab9efe42588134fc0e9fe45a2ff3532040
95880,LAC EN SCENE 3#5bfef65810b1,5bfef65810b1,A BIS,Enghien-les-Bains,LAC EN SCÈNE 3,True,2024T2,Nexity,2.3004511,48.9661624,990000,990000,1,,1 BLD DU LAC,T1|T2|T3|T4|T5|T6,
95710,Le Manoir -Colisee#c5febec4c564,c5febec4c564,B2,Bray-et-Lû,Le Manoir -Colisee,True,1990T4,Revenu Pierre,1.6535202,49.1385929,139600,139600,1,EHPAD,2 Rte de Vernon ,T1,https://dj32ymiemc11o.cloudfront.net/eyJidWNrZXQiOiJvdGFyZWUtcHJvZHVjdGlvbi1maWxlcyIsImtleSI6IjY2ODZhN2U3YjgyMDAyZmU2M2RmOGJmZjYwMjFhMjUxMmY3ZTA4YmYiLCJlZGl0cyI6eyJyZXNpemUiOnsid2lkdGgiOjM4MCwiaGVpZ2h0IjozMDAsImZpdCI6ImNvdmVyIn19fQ==?signature=ee1e8dd9265c18bf0da5b91b1105b05ce2a29bef2a8ee716061381837b93faf3
95570,CASTANEA 5#ad4fac1f34da,ad4fac1f34da,A,Bouffémont,CASTANEA 5,False,2026T2,Nexity,2.29523,49.043562,198000,324000,17,Senior,39 RUE LÉON GIRAUDEAU,T1|T2|T3,
95110,Carre Saint-Ex#bf1616ad8b1a,bf1616ad8b1a,A,Sannois,Carré Saint-Ex,False,2025T4,LogiH,2.2485695,48.9782337,281000,338957.35,8,,Rue Antoine de Saint Exupéry,T2|T3|T4,https://dj32ymiemc11o.cloudfront.net/eyJidWNrZXQiOiJvdGFyZWUtcHJvZHVjdGlvbi1maWxlcyIsImtleSI6Ijc2NDZmYmViZWQxNWYzN2NkNjI1MDk0M2ZjYmU0OGU3M2Q0Njk5NDEiLCJlZGl0cyI6eyJyZXNpemUiOnsid2lkdGgiOjM4MCwiaGVpZ2h0IjozMDAsImZpdCI6ImNvdmVyIn19fQ==?signature=e1cad9835fee1192a679e9fcbd5f53c16c4bb60baa738f73b048e32b840bc338
95120,Residence Obre#fe8c77edb33d,fe8c77edb33d,A,Ermont,Résidence Obré,False,2025T1,Kaufman & Broad,2.255374,48.9864243,289000,289000,1,,6 Avenue de Villiers,T2|T3|T4,https://dj32ymiemc11o.cloudfront.net/eyJidWNrZXQiOiJvdGFyZWUtcHJvZHVjdGlvbi1maWxlcyIsImtleSI6IjA5OGIzMWI1NGU0MzQ3Y2I5ZmY3NDk4NDgyZDJiM2Y1MGE0NmY2ZTIiLCJlZGl0cyI6eyJyZXNpemUiOnsid2lkdGgiOjM4MCwiaGVpZ2h0IjozMDAsImZpdCI6ImNvdmVyIn19fQ==?signature=5126c11555d713e18415f85e178bca7c23b5c94ca800c71105f53a1772f881d9
95300,Les Roses Debussy#3bd0c6763835,3bd0c6763835,A,Pontoise,Les Roses Debussy,False,2026T4,Inovefa,2.1041248,49.0929069,210080,361920,16,,Rue Claude Debussy,T2|T3|T4,
95250,L'ECRIN DE PASTEUR#a523496d0625,a523496d0625,A,Beauchamp,L'ECRIN DE PASTEUR,False,2026T4,Les Nouveaux Constructeurs,2.2000827,49.0108707,254600,405500,7,, 22 avenue Pasteur,T2|T3|T4,https://dj32ymiemc11o.cloudfront.net/eyJidWNrZXQiOiJvdGFyZWUtcHJvZHVjdGlvbi1maWxlcyIsImtleSI6IjMzNTA2YzQyNDJiNDkxMTU1M2EyMjk1YWMyYjI1ODBiYjBjMDZkYjEiLCJlZGl0cyI6eyJyZXNpemUiOnsid2lkdGgiOjM4MCwiaGVpZ2h0IjozMDAsImZpdCI6ImNvdmVyIn19fQ==?signature=3808498f1e205351c6988f28505335cadebad7bfc568552703aed83b237a3c0e
95300,L'Ermitage - PONTOISE#f3e6a3c1b68f,f3e6a3c1b68f,A,Pontoise,L'Ermitage - PONTOISE,False,2026T4,Kacius,2.093453825378,49.042521348822,189840,574871,10,,1 rue de Verdun,Studio|T2|T2 Duplex|T3|T3 Duplex,
95240,CASTEL VIGNON 2#27135977c684,27135977c684,A,Cormeilles-en-Parisis,CASTEL VIGNON 2,False,2025T1,Nexity,2.1968237,48.9732453,356000,356000,1,,15 RUE VIGNON,T1|T2|T3|T4,
95300,COEUR ROSA#39d85742861e,39d85742861e,A,Pontoise,COEUR ROSA,False,2025T3,Spirit,2.0896634,49.0445946,204000,333800,10,,3 chaussée Jules César,T1|T2|T3|T4,https://dj32ymiemc11o.cloudfront.net/eyJidWNrZXQiOiJvdGFyZWUtcHJvZHVjdGlvbi1maWxlcyIsImtleSI6IjVmNDkxMzA5MjhjNmRlZWQwODdmOTU3ZWEyYTdlYTc2ZDNiNWRjNzEiLCJlZGl0cyI6eyJyZXNpemUiOnsid2lkdGgiOjM4MCwiaGVpZ2h0IjozMDAsImZpdCI6ImNvdmVyIn19fQ==?signature=5992e4fa2f585bf86a0ff28f07005091aeaa1bdda553d989f14388ec0f72632f
95570,Le Mesnil - Colisee#017ff7fc4186,017ff7fc4186,A,Bouffémont,Le Mesnil - Colisee,True,2011T4,Revenu Pierre,2.2918729,49.0439024,139000,139000,1,EHPAD,41 Rue Leon Giraudeau ,T1,https://dj32ymiemc11o.cloudfront.net/eyJidWNrZXQiOiJvdGFyZWUtcHJvZHVjdGlvbi1maWxlcyIsImtleSI6IjFlNzc3YjQ4MjZmODVlYmY4Mzc0N2M4MTRiNjNkOTExNzkzNGI2YjUiLCJlZGl0cyI6eyJyZXNpemUiOnsid2lkdGgiOjM4MCwiaGVpZ2h0IjozMDAsImZpdCI6ImNvdmVyIn19fQ==?signature=5703500fa294010f103b3e4d9e1b9362c106be5c3e511c60f1e4e67ad43abbbd
95100,PASSAGE DE LUTECE 1#ce989244768a,ce989244768a,A,Argenteuil,PASSAGE DE LUTECE 1,False,2026T1,Nexity,2.2064216,48.9427842,252000,286635.06,1,,43 RTE DE PONTOISE,T2|T3|T4|T5,
95240,VILLA RIVA #28bc4f595d60,28bc4f595d60,A,Cormeilles-en-Parisis,VILLA RIVA ,False,2024T4,PRIMAVEFA,2.178267539673,48.953903692781,506000,900000,4,,Route de Seine,T3|T4|T5|T5 Duplex,https://dj32ymiemc11o.cloudfront.net/eyJidWNrZXQiOiJvdGFyZWUtcHJvZHVjdGlvbi1maWxlcyIsImtleSI6IjI2MjZmMTMyMTFlYzVhZmZjNGEyNWM1MDEyMmIzNTBhIiwiZWRpdHMiOnsicmVzaXplIjp7IndpZHRoIjozODAsImhlaWdodCI6MzAwLCJmaXQiOiJjb3ZlciJ9fX0=?signature=e6cd89475f18a9b886a9d50265288b27b4e92f22797bba1da5dc2854aa9a139e
95700,City Residence Paris CDG 4*#c5faacf31906,c5faacf31906,A,Roissy-en-France,City Residence Paris CDG 4*,True,2013T4,Revenu Pierre,2.5145548,48.9986442,73100,106600,5,Business,14 Allee du Verger ,T1|T1 Bis|T2,https://dj32ymiemc11o.cloudfront.net/eyJidWNrZXQiOiJvdGFyZWUtcHJvZHVjdGlvbi1maWxlcyIsImtleSI6ImJlZmY4MjZkZTQwYzJlZmQ4OWQ5ZjIzZDYyZTFmNzU0YjU0NTcyNmYiLCJlZGl0cyI6eyJyZXNpemUiOnsid2lkdGgiOjM4MCwiaGVpZ2h0IjozMDAsImZpdCI6ImNvdmVyIn19fQ==?signature=fd168a4b272f5a98ab73b46a3b9f4bb124a6f8e5f38631508b5f360e36ae8c80
95170,LES JARDINS D'ORMESSON#28e5c4962fc7,28e5c4962fc7,A,Deuil-la-Barre,LES JARDINS D'ORMESSON,False,2026T4,Les Nouveaux Constructeurs,2.3144993,48.9688199,222200,513800,32,,45 AVENUE DE LA DIVISION LECLERC,T1|T2|T3|T4,https://dj32ymiemc11o.cloudfront.net/eyJidWNrZXQiOiJvdGFyZWUtcHJvZHVjdGlvbi1maWxlcyIsImtleSI6IjY4ODU0ZDk3NzEyODYwMzk2OWVhN2Y0MjJjZjE2MWUxZDE1NWJjZjMiLCJlZGl0cyI6eyJyZXNpemUiOnsid2lkdGgiOjM4MCwiaGVpZ2h0IjozMDAsImZpdCI6ImNvdmVyIn19fQ==?signature=8a128aa8ca3e9145dfeeb468b262cd2851d94b0b1c4bb6b99f89f778cd979f3b
95470,Le clos des Peupliers#e232e2923be9,e232e2923be9,B1,Saint-Witz,Le clos des Peupliers,False,2025T1,Kaufman & Broad,2.564,49.089792,289000,594000,5,Coliving,11-13 avenue des joncs,T2|T3|T4|T5|T6,https://dj32ymiemc11o.cloudfront.net/eyJidWNrZXQiOiJvdGFyZWUtcHJvZHVjdGlvbi1maWxlcyIsImtleSI6IjY1YjU4YzJiNzZmYTRhMDJmNGE3MzE3YTJhYTNkYjFhZWM2NTUyMWQiLCJlZGl0cyI6eyJyZXNpemUiOnsid2lkdGgiOjM4MCwiaGVpZ2h0IjozMDAsImZpdCI6ImNvdmVyIn19fQ==?signature=2dfe58e7c32f5f1f7d34dacbe0b660ffc9596396f7a632ef6a48ec348f684d6f
95240,HEKA#37f57a77d5f6,37f57a77d5f6,A,Cormeilles-en-Parisis,HEKA,False,2025T2,Becarre,2.1982218,48.9735518,210000,598000,10,,15 avenue de la Libération,T1|T2|T3|T4|T5,https://dj32ymiemc11o.cloudfront.net/eyJidWNrZXQiOiJvdGFyZWUtcHJvZHVjdGlvbi1maWxlcyIsImtleSI6IjExNGVmYTEwYzk5YTczZjViNmY3YjRjMTYzN2MwMDU2NjI5NTBhNDYiLCJlZGl0cyI6eyJyZXNpemUiOnsid2lkdGgiOjM4MCwiaGVpZ2h0IjozMDAsImZpdCI6ImNvdmVyIn19fQ==?signature=be508e428abe11d0b185ccf54a38177bcdae89929e9312abf7c8d8a1ff4360e4
95150,Les allees de Sainte-Honorine#cfd8588d0773,cfd8588d0773,A,Taverny,Les allées de Sainte-Honorine,False,2025T4,Kaufman & Broad,2.2080488,49.0088795,226825,332000,4,,Rue des Ecoles - Rue des Lilas,T1|T2|T3|T4,https://dj32ymiemc11o.cloudfront.net/eyJidWNrZXQiOiJvdGFyZWUtcHJvZHVjdGlvbi1maWxlcyIsImtleSI6IjNiNjlhMThjOWFhZTMwOGU0ZWRkMGY2ZTUzODkxOWY3YmU0NWRmYzYiLCJlZGl0cyI6eyJyZXNpemUiOnsid2lkdGgiOjM4MCwiaGVpZ2h0IjozMDAsImZpdCI6ImNvdmVyIn19fQ==?signature=86247bf549d36066f6a1b8234ff08c197c9c409f34661ebc00d87ec001841bc3
95370,LES TERRASSES - COEUR DE VILLE#1c864b75f708,1c864b75f708,A,Montigny-lès-Cormeilles,LES TERRASSES - COEUR DE VILLE,False,2026T1,Les Nouveaux Constructeurs,2.1952605,48.9942518,238430,399900.28,11,,86-90 BOULEVARD BORDIER,T2|T3|T4,https://dj32ymiemc11o.cloudfront.net/eyJidWNrZXQiOiJvdGFyZWUtcHJvZHVjdGlvbi1maWxlcyIsImtleSI6IjQ2Yjk2YmFkMTJmYThhN2EzODhkZmFjMDU1MjlhNjUxMGRjYmM3MzIiLCJlZGl0cyI6eyJyZXNpemUiOnsid2lkdGgiOjM4MCwiaGVpZ2h0IjozMDAsImZpdCI6ImNvdmVyIn19fQ==?signature=bd45d21f0b7007c5b1dd88e6b8d3fb2a3986f9264d1da6412df18accffb385b3
95510,Le Pavillon des Tamaris#49baaaf9cbf5,49baaaf9cbf5,B1,Aincourt,Le Pavillon des Tamaris,False,2025T2,François 1er,1.7684662,49.0749471,392677,536531,13,,Rue de la Bucaille,T1|T2|T3,https://dj32ymiemc11o.cloudfront.net/eyJidWNrZXQiOiJvdGFyZWUtcHJvZHVjdGlvbi1maWxlcyIsImtleSI6IjgyNDVmMDIwZWYwOWZkZmZiN2RjOGJiODg3ODNjNzNjOTVkNzZmYzkiLCJlZGl0cyI6eyJyZXNpemUiOnsid2lkdGgiOjM4MCwiaGVpZ2h0IjozMDAsImZpdCI6ImNvdmVyIn19fQ==?signature=4ef1498b2e1c38d034c19f1bdce1bdf3992594daa40262171ca77b193159149e
95520,Les Templitudes Osny#c95c630b73a7,c95c630b73a7,A,Osny,Les Templitudes Osny,True,2012T4,Revenu Pierre,2.0736309,49.0750176,122300,162300,4,Senior,7 Rue Paul Emile Victor ,T1|T1 Bis|T2|T3,https://dj32ymiemc11o.cloudfront.net/eyJidWNrZXQiOiJvdGFyZWUtcHJvZHVjdGlvbi1maWxlcyIsImtleSI6IjZiMGU2MDBhZGM3NjdjYjRiYmEyMDQ0MmMzNzFhNzUxNDc2MTAxNDkiLCJlZGl0cyI6eyJyZXNpemUiOnsid2lkdGgiOjM4MCwiaGVpZ2h0IjozMDAsImZpdCI6ImNvdmVyIn19fQ==?signature=5c6cf67cc7a1c69812b302ba41c0c3cbdcfb32c5b252a09fbe3ca2964c073e1d
95380,LE HAMEAU DE LUVERA - LES BLEUETS - BAT B#2ec89601c9ad,2ec89601c9ad,B1,Louvres,LE HAMEAU DE LUVERA - LES BLEUETS - BAT B,False,2026T3,Pichet (RP),2.5074014,49.0444432,309000,317000,4,,LE HAMEAU DE LUVERA,T4,
95000,Appartement T3 - 66 m2 - Cergy#abc4086bc0e5,abc4086bc0e5,A,Cergy,Appartement T3 - 66 m2 - Cergy,True,2024T2,Masteos,2.0700169,49.0324155,263740,263740,1,,Rue François Villon,T3,https://dj32ymiemc11o.cloudfront.net/eyJidWNrZXQiOiJvdGFyZWUtcHJvZHVjdGlvbi1maWxlcyIsImtleSI6ImY2YjIwNmNlNWQ4ZDg4YjMxZTY3MzlkMTIzZGZiMzMwOGZkYTUxNzgiLCJlZGl0cyI6eyJyZXNpemUiOnsid2lkdGgiOjM4MCwiaGVpZ2h0IjozMDAsImZpdCI6ImNvdmVyIn19fQ==?signature=120056444a7cb72903c01dba6884c964154a683109f20c1f4ea0787598603cbb
95200,VILLAGE GARANCE#939733156e26,939733156e26,A,Sarcelles,VILLAGE GARANCE,False,2026T4,Les Nouveaux Constructeurs,2.3709178,48.9938603,246700,434600,16,,48-50 BOULEVARD DU GÉNÉRAL DE GAULLE,T1|T2|T3|T4,https://dj32ymiemc11o.cloudfront.net/eyJidWNrZXQiOiJvdGFyZWUtcHJvZHVjdGlvbi1maWxlcyIsImtleSI6IjU5MDQ4MjgyY2IzZjAyZGE0ODNkNmY3YThjMDU2YTE1ODBhYTkxZDUiLCJlZGl0cyI6eyJyZXNpemUiOnsid2lkdGgiOjM4MCwiaGVpZ2h0IjozMDAsImZpdCI6ImNvdmVyIn19fQ==?signature=2c2048bed7587fd3e6a1636f2fbbee08c38c40755970666c310dfdc238144704
95700,L'ENVOL#bd1db0ab27e8,bd1db0ab27e8,A,Roissy-en-France,L'ENVOL,True,2023T4,Oceanis,2.510068,48.999286,161896,161896,1,,8 rue de l'Espérance,Studio,https://dj32ymiemc11o.cloudfront.net/eyJidWNrZXQiOiJvdGFyZWUtcHJvZHVjdGlvbi1maWxlcyIsImtleSI6IjQxMmZmZGNiZWI1MTY4ZTI4ZmY5NmY4MWU3OWZmMjQxNjNkMjIwMmQiLCJlZGl0cyI6eyJyZXNpemUiOnsid2lkdGgiOjM4MCwiaGVpZ2h0IjozMDAsImZpdCI6ImNvdmVyIn19fQ==?signature=836bfed55ea7e5a18ccd500e1935e84ddcad8b390d5a0cae9b2931c879e13cc8
95380,LE HAMEAU DE LUVERA - IRIS -BAT I#4239f14f4cae,4239f14f4cae,B1,Louvres,LE HAMEAU DE LUVERA - IRIS -BAT I,False,2025T4,Pichet (RP),2.5103092,49.0574746,211500,314000,6,,Rue des Grands Champs,LOCAL COMMERCIAL|T1|T2|T3|T4,https://dj32ymiemc11o.cloudfront.net/eyJidWNrZXQiOiJvdGFyZWUtcHJvZHVjdGlvbi1maWxlcyIsImtleSI6ImE2OWFhM2JlMzM4YzAzYzVhZjY0OGYwZjU4ODlkZTdkMGNhMGI0YzEiLCJlZGl0cyI6eyJyZXNpemUiOnsid2lkdGgiOjM4MCwiaGVpZ2h0IjozMDAsImZpdCI6ImNvdmVyIn19fQ==?signature=ae9965664373ce41db0bdd155fd6758caabeabd05ca7d427bd84073613f0d8d1
95270,COEUR DE BOURG#60273995919a,60273995919a,B1,Saint-Martin-du-Tertre,COEUR DE BOURG,False,2027T2,Les Nouveaux Constructeurs,2.3500176,49.1072224,202200,364200,36,,32 rue Gabriel Péri,T2|T3|T4,https://dj32ymiemc11o.cloudfront.net/eyJidWNrZXQiOiJvdGFyZWUtcHJvZHVjdGlvbi1maWxlcyIsImtleSI6IjM3NDg5NTJmNDM5MmVhNDBjNDcyYzQyOTkzODE3Y2MxMDMyZjcwODMiLCJlZGl0cyI6eyJyZXNpemUiOnsid2lkdGgiOjM4MCwiaGVpZ2h0IjozMDAsImZpdCI6ImNvdmVyIn19fQ==?signature=3bad88a73c8d58a953b86667f075f9d19bf6270a14c7ccf2f2790bf60a5c5eda
95800,(STUDEA) Residence etudiante Studea Cergy Universite 2#e231cc7fb56b,e231cc7fb56b,A,Cergy,(STUDEA) Résidence étudiante Studéa Cergy Université 2,True,,iSelection,2.038795,49.0518553,80400,88900,4,,"42 Avenue Genottes, 95800 Cergy",Studio|T1,
95800,Residence etudiante Studea Cergy Universite 2#e9d310defbb7,e9d310defbb7,A,Cergy,Résidence étudiante Studéa Cergy Université 2,True,,iSelection,2.0391042,49.0521853,78500,78500,1,Student,"42 Avenue des Genottes, 95800 Cergy",Studio|T1,
95000,Appartement Studio - 13 m2 - Cergy#8d2fd7966168,8d2fd7966168,A,Cergy,Appartement Studio - 13 m2 - Cergy,True,2024T2,Masteos,2.0733132,49.0361471,93000,93000,1,,Rue du Chemin Dupuis Vert,Studio,https://dj32ymiemc11o.cloudfront.net/eyJidWNrZXQiOiJvdGFyZWUtcHJvZHVjdGlvbi1maWxlcyIsImtleSI6IjZjZWE2MmNlY2U2M2E4ZDlkZTEzZjA5MDYxZTJhZWRmN2IyMmU2MmUiLCJlZGl0cyI6eyJyZXNpemUiOnsid2lkdGgiOjM4MCwiaGVpZ2h0IjozMDAsImZpdCI6ImNvdmVyIn19fQ==?signature=46a0a17528e36a963c9e6a5a2d91f65394eba98f3b8bf6963e730f05c84bf7b5
95240,Domaine Nature Seine#3319991c41f8,3319991c41f8,A,Cormeilles-en-Parisis,Domaine Naturé Seine,False,2024T4,MJ Développement,2.2101415,48.9760243,413000,862000,8,,3 rue du Commandant Kieffer,T2|T2 Bis|T3|T3 Duplex|T4|T4 Duplex,https://dj32ymiemc11o.cloudfront.net/eyJidWNrZXQiOiJvdGFyZWUtcHJvZHVjdGlvbi1maWxlcyIsImtleSI6IjQwZTliYzk5MDI5NTEyY2Q2NmU4NDNmMzM0ZmI5ZTBiM2M5MzIxM2QiLCJlZGl0cyI6eyJyZXNpemUiOnsid2lkdGgiOjM4MCwiaGVpZ2h0IjozMDAsImZpdCI6ImNvdmVyIn19fQ==?signature=e565fc74f0c4a1813a7d58c1cede5d623918b52969abe0ef6e0f8083d89068f2
95530,VILLA DAUBIGNY 1#f166bef24cce,f166bef24cce,A,La Frette-sur-Seine,VILLA DAUBIGNY 1,False,2025T4,Nexity,2.1813455,48.9806307,293000,384000,9,,55 RUE DE LA GARE,T1|T2|T3|T4,
95610,LES BELLES PROMENADES Residence Seniors#d20d4e400220,d20d4e400220,A,Éragny,LES BELLES PROMENADES Résidence Seniors,False,2025T1,Cogedim,2.0882276,49.0165702,211200,278800,8,Senior,RUE DES BELLES HATES,Studio alcôve|T2|T2 alcôve|T3|T3/T4,https://dj32ymiemc11o.cloudfront.net/eyJidWNrZXQiOiJvdGFyZWUtcHJvZHVjdGlvbi1maWxlcyIsImtleSI6IjM5ZWRiZjRmZmU2ZTQzODZlOTU0YzU4ODVjOGQ2Yzg0NGI0ZjY5NWMiLCJlZGl0cyI6eyJyZXNpemUiOnsid2lkdGgiOjM4MCwiaGVpZ2h0IjozMDAsImZpdCI6ImNvdmVyIn19fQ==?signature=7c04b722f6b4574b00854a66588ee5975934a9a7bd8369ab4248e7b396f6ea52
95100,Appartement T1 - 32 m2 - Argenteuil#65edd18004f0,65edd18004f0,A,Argenteuil,Appartement T1 - 32 m2 - Argenteuil,True,2024T2,Masteos,2.251937,48.9433049,156400,156400,1,,Avenue Gabriel Péri,T1,https://dj32ymiemc11o.cloudfront.net/eyJidWNrZXQiOiJvdGFyZWUtcHJvZHVjdGlvbi1maWxlcyIsImtleSI6IjFhMWU5OTYxNDYwN2IxZGNmODQwNDcwMDYzN2I3NGEzMDFlZDY4ZWMiLCJlZGl0cyI6eyJyZXNpemUiOnsid2lkdGgiOjM4MCwiaGVpZ2h0IjozMDAsImZpdCI6ImNvdmVyIn19fQ==?signature=0e80d47d1ba175064bd59e844ce98207c53f7f3b2bc1ec5fb09ca9eaeb6fe092
95000,L'ISARA - BAT 2#3d9631476a6a,3d9631476a6a,A,Cergy,L’ISARA - BAT 2,False,2026T4,Pichet (Investissement),2.065502,49.04656,211500,298500,17,,L’ISARA,T2|T3,
95290,L'Ecrin#e47f6017bb71,e47f6017bb71,A,L'Isle-Adam,L'Ecrin,False,2025T3,Inovefa,2.2246981,49.1130434,254000,592000,14,,11 ruelle Caron - 24 rue Chantepie Mancier,T1|T2|T3|T4|T5,
